 shopId: 10013957, shopName: "心享歌城", shopGlng:"121.5075662", shopGlat: "31.26280371", shopPower:45, shopType:15, mainCategoryName:"量贩式KTV", categoryURLName:"KTV", shopGroupId: 10013957, categoryName: "K歌",comNum:931条评论
 shopId: 10647369, shopName: "high歌量贩KTV", shopGlng:"121.50333487135778", shopGlat: "30.83647159121156", shopPower:40, shopType:15, mainCategoryName:"量贩式KTV", categoryURLName:"KTV", shopGroupId: 10647369, categoryName: "K歌",comNum:47条评论
 shopId: 11547695, shopName: "上海天地汇商务会所", shopGlng:"121.476019", shopGlat: "31.222743", shopPower:40, shopType:15, mainCategoryName:"会所型KTV", categoryURLName:"KTV", shopGroupId: 11547695, categoryName: "K歌",comNum:31条评论
 shopId: 11558194, shopName: "伯爵3号私享会所", shopGlng:"121.507335", shopGlat: "31.217015", shopPower:45, shopType:15, mainCategoryName:"会所型KTV", categoryURLName:"KTV", shopGroupId: 11558194, categoryName: "K歌",comNum:42条评论
 shopId: 11573786, shopName: "宝乐迪量贩式KTV", shopGlng:"121.529839", shopGlat: "31.301823", shopPower:40, shopType:15, mainCategoryName:"量贩式KTV", categoryURLName:"KTV", shopGroupId: 6189744,categoryName: NULL,comNum:268条评论
 shopId: 12215356, shopName: "歌巢量贩KTV", shopGlng:"121.347418", shopGlat: "31.415469", shopPower:40, shopType:15, mainCategoryName:"量贩式KTV", categoryURLName:"KTV", shopGroupId: 12215356, categoryName: "K歌",comNum:103条评论
 shopId: 12595312, shopName: "富建娱乐会所", shopGlng:"121.360637", shopGlat: "31.138041", shopPower:35, shopType:15, mainCategoryName:"会所型KTV", categoryURLName:"KTV", shopGroupId: 12595312, categoryName: "K歌",comNum:9条评论
 shopId: 13706336, shopName: "K1时尚量贩KTV", shopGlng:"121.48507", shopGlat: "31.20635", shopPower:40, shopType:15, mainCategoryName:"量贩式KTV", categoryURLName:"KTV", shopGroupId: 13706336, categoryName: "K歌",comNum:319条评论
 shopId: 13726215, shopName: "醇情百年录音棚", shopGlng:"121.4517904", shopGlat: "31.27840741", shopPower:35, shopType:15, mainCategoryName:"录音棚", categoryURLName:"KTV", shopGroupId: 13726215, categoryName: "K歌",comNum:4条评论
 shopId: 13736729, shopName: "我是歌手", shopGlng:"121.38749", shopGlat: "31.320866", shopPower:35, shopType:15, mainCategoryName:"量贩式KTV", categoryURLName:"KTV", shopGroupId: 13736729, categoryName: "K歌",comNum:47条评论
 shopId: 13749215, shopName: "太阳城音乐广场量贩KTV", shopGlng:"121.464191", shopGlat: "31.041948", shopPower:35, shopType:15, mainCategoryName:"量贩式KTV", categoryURLName:"KTV", shopGroupId: 2182795, categoryName: "K歌",comNum:219条评论
 shopId: 13795319, shopName: "欢乐时光量贩式KTV", shopGlng:"121.216915", shopGlat: "31.315994", shopPower:35, shopType:15, mainCategoryName:"量贩式KTV", categoryURLName:"KTV", shopGroupId: 13795319, categoryName: "K歌",comNum:20条评论
 shopId: 13812857, shopName: "炫麦时尚KTV", shopGlng:"121.373152", shopGlat: "30.994211", shopPower:35, shopType:15, mainCategoryName:"量贩式KTV", categoryURLName:"KTV", shopGroupId: 8674628, categoryName: "K歌",comNum:168条评论
 shopId: 13857511, shopName: "欢歌天天量贩式KTV", shopGlng:"121.52535", shopGlat: "31.14286", shopPower:45, shopType:15, mainCategoryName:"量贩式KTV", categoryURLName:"KTV", shopGroupId: 5273885, categoryName: "K歌",comNum:429条评论
 shopId: 13878627, shopName: "金城纯K", shopGlng:"121.338973", shopGlat: "30.715869", shopPower:35, shopType:15, mainCategoryName:"量贩式KTV", categoryURLName:"KTV", shopGroupId: 13878627, categoryName: "K歌",comNum:63条评论
 shopId: 13879004, shopName: "王子公主奇遇记主题KTV", shopGlng:"121.48864", shopGlat: "31.26177", shopPower:50, shopType:15, mainCategoryName:"量贩式KTV", categoryURLName:"KTV", shopGroupId: 8530356,categoryName: NULL,comNum:671条评论
 shopId: 13915233, shopName: "上海K歌时尚主题量贩式KTV", shopGlng:"121.43655", shopGlat: "31.2376", shopPower:45, shopType:15, mainCategoryName:"量贩式KTV", categoryURLName:"KTV", shopGroupId: 13915233, categoryName: "K歌",comNum:1817条评论
 shopId: 14064705, shopName: "迎鹤", shopGlng:"121.40543", shopGlat: "31.04114", shopPower:35, shopType:15, mainCategoryName:"会所型KTV", categoryURLName:"KTV", shopGroupId: 14064705, categoryName: "K歌",comNum:6条评论
 shopId: 14066164, shopName: "悦海之音", shopGlng:"121.103496", shopGlat: "31.155283", shopPower:35, shopType:15, mainCategoryName:"会所型KTV", categoryURLName:"KTV", shopGroupId: 14066164, categoryName: "K歌",comNum:2条评论
 shopId: 14067158, shopName: "楚香楼KTV", shopGlng:"121.463284", shopGlat: "31.254012", shopPower:35, shopType:15, mainCategoryName:"会所型KTV", categoryURLName:"KTV", shopGroupId: 14067158, categoryName: "K歌",comNum:3条评论
 shopId: 14067169, shopName: "鼎天国际会所", shopGlng:"121.45629", shopGlat: "31.33128", shopPower:40, shopType:15, mainCategoryName:"会所型KTV", categoryURLName:"KTV", shopGroupId: 14067169, categoryName: "K歌",comNum:4条评论
 shopId: 14068256, shopName: "123音乐会所", shopGlng:"121.447031", shopGlat: "31.338719", shopPower:35, shopType:15, mainCategoryName:"会所型KTV", categoryURLName:"KTV", shopGroupId: 14068256, categoryName: "K歌",comNum:3条评论
 shopId: 14068640, shopName: "唐宫ktv", shopGlng:"121.30336", shopGlat: "31.295432", shopPower:35, shopType:15, mainCategoryName:"会所型KTV", categoryURLName:"KTV", shopGroupId: 14068640, categoryName: "K歌",comNum:6条评论
 shopId: 14070152, shopName: "绅钰KTV酒吧", shopGlng:"121.322344", shopGlat: "31.121748", shopPower:35, shopType:15, mainCategoryName:"会所型KTV", categoryURLName:"KTV", shopGroupId: 14070152, categoryName: "K歌",comNum:2条评论
 shopId: 14070717, shopName: "汉城KTV", shopGlng:"121.575491", shopGlat: "31.115867", shopPower:35, shopType:15, mainCategoryName:"会所型KTV", categoryURLName:"KTV", shopGroupId: 14070717, categoryName: "K歌",comNum:2条评论
 shopId: 14071253, shopName: "君缘KTV", shopGlng:"121.455771", shopGlat: "31.095794", shopPower:35, shopType:15, mainCategoryName:"会所型KTV", categoryURLName:"KTV", shopGroupId: 14071253, categoryName: "K歌",comNum:3条评论
 shopId: 14072125, shopName: "南石大酒店KTV", shopGlng:"121.40328", shopGlat: "31.24518", shopPower:35, shopType:15, mainCategoryName:"会所型KTV", categoryURLName:"KTV", shopGroupId: 14072125, categoryName: "K歌",comNum:2条评论
 shopId: 14073319, shopName: "航星KTV", shopGlng:"121.59711", shopGlat: "31.0282", shopPower:35, shopType:15, mainCategoryName:"会所型KTV", categoryURLName:"KTV", shopGroupId: 14073319, categoryName: "K歌",comNum:3条评论
 shopId: 14073844, shopName: "圆缘KTV", shopGlng:"121.470751", shopGlat: "31.208746", shopPower:35, shopType:15, mainCategoryName:"会所型KTV", categoryURLName:"KTV", shopGroupId: 14073844, categoryName: "K歌",comNum:8条评论
 shopId: 14073974, shopName: "龙门阁会所", shopGlng:"121.448857", shopGlat: "31.371356", shopPower:35, shopType:15, mainCategoryName:"会所型KTV", categoryURLName:"KTV", shopGroupId: 14073974, categoryName: "K歌",comNum:2条评论
 shopId: 14075208, shopName: "一往情深KTV", shopGlng:"121.222751", shopGlat: "31.005202", shopPower:35, shopType:15, mainCategoryName:"会所型KTV", categoryURLName:"KTV", shopGroupId: 14075208, categoryName: "K歌",comNum:5条评论
 shopId: 14076449, shopName: "158沙龙", shopGlng:"121.451163", shopGlat: "31.325526", shopPower:30, shopType:15, mainCategoryName:"KTV", categoryURLName:"KTV", shopGroupId: 14076449, categoryName: "K歌",comNum:1条评论
 shopId: 14404843, shopName: "豪爵KTV", shopGlng:"121.381702", shopGlat: "31.283551", shopPower:35, shopType:15, mainCategoryName:"会所型KTV", categoryURLName:"KTV", shopGroupId: 14404843, categoryName: "K歌",comNum:6条评论
 shopId: 14404859, shopName: "金帝KTV", shopGlng:"121.361181", shopGlat: "31.142715", shopPower:35, shopType:15, mainCategoryName:"会所型KTV", categoryURLName:"KTV", shopGroupId: 14404859, categoryName: "K歌",comNum:3条评论
 shopId: 14646422, shopName: "新商普音乐沙龙", shopGlng:"121.45512", shopGlat: "31.33126", shopPower:35, shopType:15, mainCategoryName:"KTV", categoryURLName:"KTV", shopGroupId: 14646422, categoryName: "K歌",comNum:2条评论
 shopId: 14646428, shopName: "18K", shopGlng:"121.451314", shopGlat: "31.325241", shopPower:30, shopType:15, mainCategoryName:"KTV", categoryURLName:"KTV", shopGroupId: 14646428, categoryName: "K歌",comNum:1条评论
 shopId: 14743154, shopName: "唛迪量贩式KTV", shopGlng:"121.135269", shopGlat: "31.181928", shopPower:40, shopType:15, mainCategoryName:"量贩式KTV", categoryURLName:"KTV", shopGroupId: 14743154, categoryName: "K歌",comNum:10条评论
 shopId: 14912610, shopName: "私人定制国际KTV夜总会", shopGlng:"121.457272", shopGlat: "31.240747", shopPower:40, shopType:15, mainCategoryName:"会所型KTV", categoryURLName:"KTV", shopGroupId: 14912610, categoryName: "K歌",comNum:21条评论
 shopId: 14912670, shopName: "唛达人量贩式KTV", shopGlng:"121.4426701", shopGlat: "30.99175967", shopPower:35, shopType:15, mainCategoryName:"量贩式KTV", categoryURLName:"KTV", shopGroupId: 14912670, categoryName: "K歌",comNum:13条评论
 shopId: 14954937, shopName: "金色之音KTV", shopGlng:"121.34752", shopGlat: "31.15609", shopPower:35, shopType:15, mainCategoryName:"会所型KTV", categoryURLName:"KTV", shopGroupId: 14954937, categoryName: "K歌",comNum:4条评论
 shopId: 15592827, shopName: "K客帝国休闲KTV", shopGlng:"121.447441", shopGlat: "31.332836", shopPower:0, shopType:15, mainCategoryName:"量贩式KTV", categoryURLName:"KTV", shopGroupId: 15592827, categoryName: "K歌",comNum:0条评论
 shopId: 15592850, shopName: "高歌纯K", shopGlng:"121.616297", shopGlat: "31.205394", shopPower:45, shopType:15, mainCategoryName:"量贩式KTV", categoryURLName:"KTV", shopGroupId: 15592850, categoryName: "K歌",comNum:134条评论
 shopId: 15592878, shopName: "新天地商务会所", shopGlng:"121.18456", shopGlat: "31.100201", shopPower:35, shopType:15, mainCategoryName:"会所型KTV", categoryURLName:"KTV", shopGroupId: 15592878, categoryName: "K歌",comNum:3条评论
 shopId: 15600940, shopName: "天娱王朝娱乐会所", shopGlng:"121.012649", shopGlat: "30.889622", shopPower:35, shopType:15, mainCategoryName:"会所型KTV", categoryURLName:"KTV", shopGroupId: 15600940, categoryName: "K歌",comNum:3条评论
 shopId: 15876364, shopName: "Nice voice 好歌声时尚量贩KTV", shopGlng:"121.31734", shopGlat: "31.13311", shopPower:45, shopType:15, mainCategoryName:"量贩式KTV", categoryURLName:"KTV", shopGroupId: 15876364, categoryName: "K歌",comNum:756条评论
 shopId: 15952505, shopName: "上海纯K量贩KTV", shopGlng:"121.38606", shopGlat: "31.17651", shopPower:35, shopType:15, mainCategoryName:"量贩式KTV", categoryURLName:"KTV", shopGroupId: 15952505, categoryName: "K歌",comNum:1284条评论
 shopId: 15968935, shopName: "ABC酒吧俱乐部KTV", shopGlng:"121.5355", shopGlat: "31.22625", shopPower:35, shopType:15, mainCategoryName:"KTV", categoryURLName:"KTV", shopGroupId: 15968935, categoryName: "K歌",comNum:6条评论
 shopId: 15987611, shopName: "爱尚量贩式ktv", shopGlng:"121.347803", shopGlat: "31.264452", shopPower:35, shopType:15, mainCategoryName:"量贩式KTV", categoryURLName:"KTV", shopGroupId: 15987611, categoryName: "K歌",comNum:293条评论
 shopId: 16008451, shopName: "泰嘉迪量贩式KTV", shopGlng:"121.653995", shopGlat: "31.266836", shopPower:35, shopType:15, mainCategoryName:"量贩式KTV", categoryURLName:"KTV", shopGroupId: 16008451, categoryName: "K歌",comNum:187条评论
 shopId: 16112813, shopName: "宝丽金娱乐会所", shopGlng:"121.69771", shopGlat: "31.193488", shopPower:35, shopType:15, mainCategoryName:"会所型KTV", categoryURLName:"KTV", shopGroupId: 16112813, categoryName: "K歌",comNum:2条评论
 shopId: 16958569, shopName: "好声音量贩KTV", shopGlng:"121.26983886719", shopGlat: "31.087552354601", shopPower:35, shopType:15, mainCategoryName:"量贩式KTV", categoryURLName:"KTV", shopGroupId: 16958569, categoryName: "K歌",comNum:32条评论
 shopId: 16983835, shopName: "金乐迪纯K", shopGlng:"121.113887727509", shopGlat: "31.1596568956982", shopPower:35, shopType:15, mainCategoryName:"量贩式KTV", categoryURLName:"KTV", shopGroupId: 16983835, categoryName: "K歌",comNum:255条评论
 shopId: 17161515, shopName: "王子公主奇遇记主题KTV", shopGlng:"121.470786", shopGlat: "31.205063", shopPower:0, shopType:15, mainCategoryName:"量贩式KTV", categoryURLName:"KTV", shopGroupId: 8530356, categoryName: "K歌",comNum:0条评论
 shopId: 17169797, shopName: "荷嘉歌城", shopGlng:"121.267994", shopGlat: "31.326732", shopPower:45, shopType:15, mainCategoryName:"量贩式KTV", categoryURLName:"KTV", shopGroupId: 3699907, categoryName: "K歌",comNum:357条评论
 shopId: 17179125, shopName: "圣地娅歌娱乐会所", shopGlng:"121.341668", shopGlat: "30.714344", shopPower:35, shopType:15, mainCategoryName:"会所型KTV", categoryURLName:"KTV", shopGroupId: 17179125, categoryName: "K歌",comNum:1条评论
 shopId: 17619252, shopName: "亮歌量贩式KTV", shopGlng:"121.39712", shopGlat: "31.18198", shopPower:40, shopType:15, mainCategoryName:"量贩式KTV", categoryURLName:"KTV", shopGroupId: 17619252, categoryName: "K歌",comNum:506条评论
 shopId: 17621760, shopName: "添欢纯K量贩式KTV", shopGlng:"121.255554", shopGlat: "31.383316", shopPower:40, shopType:15, mainCategoryName:"量贩式KTV", categoryURLName:"KTV", shopGroupId: 17621760, categoryName: "K歌",comNum:834条评论
 shopId: 17695701, shopName: "米乐星世界", shopGlng:"121.38338", shopGlat: "31.23183", shopPower:0, shopType:15, mainCategoryName:"量贩式KTV", categoryURLName:"KTV", shopGroupId: 17695701, categoryName: "K歌",comNum:1条评论
 shopId: 17713061, shopName: "星乐秀量贩KTV", shopGlng:"121.2318468", shopGlat: "31.03348007", shopPower:45, shopType:15, mainCategoryName:"量贩式KTV", categoryURLName:"KTV", shopGroupId: 17713061, categoryName: "K歌",comNum:257条评论
 shopId: 17726634, shopName: "V8纯K量贩式KTV", shopGlng:"121.185414", shopGlat: "31.199977", shopPower:45, shopType:15, mainCategoryName:"量贩式KTV", categoryURLName:"KTV", shopGroupId: 17726634, categoryName: "K歌",comNum:168条评论
 shopId: 17764464, shopName: "6+1量贩KTV", shopGlng:"121.22259", shopGlat: "31.2878", shopPower:40, shopType:15, mainCategoryName:"量贩式KTV", categoryURLName:"KTV", shopGroupId: 17764464, categoryName: "K歌",comNum:284条评论
 shopId: 17783922, shopName: "超级玛丽KTV", shopGlng:"121.579796", shopGlat: "31.345168", shopPower:45, shopType:15, mainCategoryName:"量贩式KTV", categoryURLName:"KTV", shopGroupId: 5397684, categoryName: "K歌",comNum:506条评论
 shopId: 17859491, shopName: "Soundhub Studios升赫录音棚", shopGlng:"121.42439", shopGlat: "31.21727", shopPower:35, shopType:15, mainCategoryName:"录音棚", categoryURLName:"KTV", shopGroupId: 17859491, categoryName: "K歌",comNum:11条评论
 shopId: 17924282, shopName: "亮歌量贩KTV", shopGlng:"121.54451", shopGlat: "31.26889", shopPower:45, shopType:15, mainCategoryName:"量贩式KTV", categoryURLName:"KTV", shopGroupId: 17924282, categoryName: "K歌",comNum:138条评论
 shopId: 17926430, shopName: "唛乐汇KTV", shopGlng:"121.408392", shopGlat: "31.047066", shopPower:35, shopType:15, mainCategoryName:"量贩式KTV", categoryURLName:"KTV", shopGroupId: 17926430, categoryName: "K歌",comNum:24条评论
 shopId: 1794790, shopName: "GalaCity上海歌城", shopGlng:"121.47865", shopGlat: "31.22954", shopPower:40, shopType:15, mainCategoryName:"量贩式KTV", categoryURLName:"KTV", shopGroupId: 1794790, categoryName: "K歌",comNum:5107条评论
 shopId: 1794796, shopName: "好乐迪", shopGlng:"121.481189", shopGlat: "31.23597", shopPower:45, shopType:15, mainCategoryName:"量贩式KTV", categoryURLName:"KTV", shopGroupId: 1794796, categoryName: "K歌",comNum:4408条评论
 shopId: 1794802, shopName: "好乐迪", shopGlng:"121.470776", shopGlat: "31.222034", shopPower:45, shopType:15,mainCategoryName: NULL,categoryURLName: NULL,shopGroupId: NULL,categoryName: NULL,comNum:7705条评论
 shopId: 1794805, shopName: "好乐迪", shopGlng:"121.47687", shopGlat: "31.22154", shopPower:45, shopType:15, mainCategoryName:"量贩式KTV", categoryURLName:"KTV", shopGroupId: 1794796, categoryName: "K歌",comNum:4383条评论
 shopId: 1794811, shopName: "好乐迪", shopGlng:"121.49887", shopGlat: "31.23691", shopPower:45, shopType:15, mainCategoryName:"量贩式KTV", categoryURLName:"KTV", shopGroupId: 1794796, categoryName: "K歌",comNum:6095条评论
 shopId: 1794814, shopName: "好乐迪", shopGlng:"121.5596", shopGlat: "31.22645", shopPower:45, shopType:15, mainCategoryName:"量贩式KTV", categoryURLName:"KTV", shopGroupId: 1794796, categoryName: "K歌",comNum:4807条评论
 shopId: 1794820, shopName: "好乐迪", shopGlng:"121.43972", shopGlat: "31.193356", shopPower:45, shopType:15, mainCategoryName:"量贩式KTV", categoryURLName:"KTV", shopGroupId: 1794796, categoryName: "K歌",comNum:6747条评论
 shopId: 1794880, shopName: "爱美歌KTV", shopGlng:"121.441359", shopGlat: "31.177266", shopPower:35, shopType:15, mainCategoryName:"量贩式KTV", categoryURLName:"KTV", shopGroupId: 1794880, categoryName: "K歌",comNum:2174条评论
 shopId: 1794922, shopName: "扬歌量贩式KTV", shopGlng:"121.44117", shopGlat: "31.19288", shopPower:45, shopType:15, mainCategoryName:"量贩式KTV", categoryURLName:"KTV", shopGroupId: 1794922, categoryName: "K歌",comNum:6254条评论
 shopId: 18001428, shopName: "紫金城娱乐会所KTV", shopGlng:"121.208743", shopGlat: "31.014988", shopPower:35, shopType:15, mainCategoryName:"会所型KTV", categoryURLName:"KTV", shopGroupId: 18001428, categoryName: "K歌",comNum:2条评论
 shopId: 18039472, shopName: "白金翰宫皇家商务会所", shopGlng:"121.4705", shopGlat: "31.20464", shopPower:40, shopType:15, mainCategoryName:"会所型KTV", categoryURLName:"KTV", shopGroupId: 18039472, categoryName: "K歌",comNum:38条评论
 shopId: 18081436, shopName: "K歌迷量贩式KTV", shopGlng:"121.270694", shopGlat: "31.23768", shopPower:35, shopType:15, mainCategoryName:"量贩式KTV", categoryURLName:"KTV", shopGroupId: 4499853, categoryName: "K歌",comNum:34条评论
 shopId: 18202159, shopName: "JQK商务娱乐会所", shopGlng:"121.63675", shopGlat: "30.903798", shopPower:35, shopType:15, mainCategoryName:"会所型KTV", categoryURLName:"KTV", shopGroupId: 18202159, categoryName: "K歌",comNum:6条评论
 shopId: 18261033, shopName: "百合KTV", shopGlng:"121.465043", shopGlat: "31.219198", shopPower:35, shopType:15, mainCategoryName:"会所型KTV", categoryURLName:"KTV", shopGroupId: 18261033, categoryName: "K歌",comNum:11条评论
 shopId: 18280719, shopName: "广灵阁KTV", shopGlng:"121.518972", shopGlat: "31.176453", shopPower:35, shopType:15, mainCategoryName:"会所型KTV", categoryURLName:"KTV", shopGroupId: 18280719, categoryName: "K歌",comNum:8条评论
 shopId: 18344547, shopName: "宝乐迪量贩式KTV", shopGlng:"121.230355", shopGlat: "31.197885", shopPower:35, shopType:15, mainCategoryName:"量贩式KTV", categoryURLName:"KTV", shopGroupId: 18344547, categoryName: "K歌",comNum:100条评论
 shopId: 18396598, shopName: "嗨唱量贩式KTV", shopGlng:"121.058222", shopGlat: "31.10869", shopPower:40, shopType:15, mainCategoryName:"量贩式KTV", categoryURLName:"KTV", shopGroupId: 18396598, categoryName: "K歌",comNum:50条评论
 shopId: 18487427, shopName: "上海纯K", shopGlng:"121.342603", shopGlat: "31.256285", shopPower:45, shopType:15, mainCategoryName:"量贩式KTV", categoryURLName:"KTV", shopGroupId: 18487427, categoryName: "K歌",comNum:790条评论
 shopId: 18643240, shopName: "浦京国际KTV会所", shopGlng:"121.525567", shopGlat: "31.226494", shopPower:35, shopType:15, mainCategoryName:"会所型KTV", categoryURLName:"KTV", shopGroupId: 18643240, categoryName: "K歌",comNum:37条评论
 shopId: 18704226, shopName: "上海帝晓国际商务会所", shopGlng:"121.401922", shopGlat: "31.248222", shopPower:20, shopType:15, mainCategoryName:"会所型KTV", categoryURLName:"KTV", shopGroupId: 18704226, categoryName: "K歌",comNum:5条评论
 shopId: 18720884, shopName: "新大陆纯K", shopGlng:"121.51824", shopGlat: "31.22899", shopPower:50, shopType:15, mainCategoryName:"量贩式KTV", categoryURLName:"KTV", shopGroupId: 18720884, categoryName: "K歌",comNum:5595条评论
 shopId: 1883428, shopName: "星座主题KTV", shopGlng:"121.39029", shopGlat: "31.205714", shopPower:40, shopType:15, mainCategoryName:"量贩式KTV", categoryURLName:"KTV", shopGroupId: 1794730, categoryName: "K歌",comNum:164条评论
 shopId: 1883632, shopName: "麒麟KTV", shopGlng:"121.43654", shopGlat: "31.237556", shopPower:30, shopType:15, mainCategoryName:"会所型KTV", categoryURLName:"KTV",shopGroupId: NULL,categoryName: NULL,comNum:402条评论
 shopId: 1886521, shopName: "上海歌城", shopGlng:"121.515821", shopGlat: "31.298341", shopPower:40, shopType:15, mainCategoryName:"KTV", categoryURLName:"KTV", shopGroupId: 1794790, categoryName: "K歌",comNum:2117条评论
 shopId: 18932445, shopName: "亿豪国际会所", shopGlng:"121.48288", shopGlat: "31.219461", shopPower:35, shopType:15, mainCategoryName:"会所型KTV", categoryURLName:"KTV", shopGroupId: 18932445, categoryName: "K歌",comNum:9条评论
 shopId: 18983623, shopName: "怡丹量贩式KTV", shopGlng:"121.609736", shopGlat: "31.29977", shopPower:35, shopType:15, mainCategoryName:"量贩式KTV", categoryURLName:"KTV", shopGroupId: 18983623, categoryName: "K歌",comNum:21条评论
 shopId: 19155896, shopName: "缤纷年代悦上海皇家ktv联谊俱乐部", shopGlng:"121.46578", shopGlat: "31.23172", shopPower:40, shopType:15, mainCategoryName:"会所型KTV", categoryURLName:"KTV", shopGroupId: 19155896, categoryName: "K歌",comNum:87条评论
 shopId: 19186786, shopName: "歌迪娱乐KTV", shopGlng:"121.693526", shopGlat: "30.927056", shopPower:35, shopType:15, mainCategoryName:"量贩式KTV", categoryURLName:"KTV", shopGroupId: 19186786, categoryName: "K歌",comNum:12条评论
 shopId: 19208298, shopName: "至尊国际商务会所", shopGlng:"121.41921", shopGlat: "31.202614", shopPower:35, shopType:15, mainCategoryName:"会所型KTV", categoryURLName:"KTV", shopGroupId: 19208298, categoryName: "K歌",comNum:24条评论
 shopId: 19227419, shopName: "超级玛丽量贩KTV", shopGlng:"121.370898", shopGlat: "31.346244", shopPower:40, shopType:15, mainCategoryName:"量贩式KTV", categoryURLName:"KTV", shopGroupId: 5397684, categoryName: "K歌",comNum:838条评论
 shopId: 19266807, shopName: "音维爱时尚量贩式KTV", shopGlng:"121.30823", shopGlat: "31.20865", shopPower:45, shopType:15, mainCategoryName:"量贩式KTV", categoryURLName:"KTV", shopGroupId: 9316731, categoryName: "K歌",comNum:256条评论
 shopId: 1926718, shopName: "纽斯练歌广场", shopGlng:"121.373635", shopGlat: "31.187799", shopPower:35, shopType:15, mainCategoryName:"量贩式KTV", categoryURLName:"KTV", shopGroupId: 1926718, categoryName: "K歌",comNum:104条评论
 shopId: 19272467, shopName: "Slow Jam Studio 漫玩录音棚", shopGlng:"121.451002", shopGlat: "31.280994", shopPower:50, shopType:15, mainCategoryName:"录音棚", categoryURLName:"KTV", shopGroupId: 19272467, categoryName: "K歌",comNum:195条评论
 shopId: 19317383, shopName: "嗨K韩式主题式练歌房", shopGlng:"121.49394", shopGlat: "31.30069", shopPower:50, shopType:15, mainCategoryName:"量贩式KTV", categoryURLName:"KTV", shopGroupId: 19317383, categoryName: "K歌",comNum:397条评论
 shopId: 19341927, shopName: "优麦量贩式歌城", shopGlng:"121.268185", shopGlat: "31.244796", shopPower:35, shopType:15, mainCategoryName:"量贩式KTV", categoryURLName:"KTV", shopGroupId: 19341927, categoryName: "K歌",comNum:36条评论
 shopId: 19364596, shopName: "天象音悦汇量贩式KTV", shopGlng:"121.279075", shopGlat: "31.385221", shopPower:45, shopType:15, mainCategoryName:"量贩式KTV", categoryURLName:"KTV", shopGroupId: 19364596, categoryName: "K歌",comNum:645条评论
 shopId: 19372840, shopName: "美歌坊KTV", shopGlng:"121.393185", shopGlat: "31.35252", shopPower:30, shopType:15, mainCategoryName:"量贩式KTV", categoryURLName:"KTV", shopGroupId: 19372840, categoryName: "K歌",comNum:5条评论
 shopId: 19424646, shopName: "香港新坐标主题KTV", shopGlng:"121.254957", shopGlat: "31.397846", shopPower:40, shopType:15, mainCategoryName:"量贩式KTV", categoryURLName:"KTV", shopGroupId: 19424646, categoryName: "K歌",comNum:27条评论
 shopId: 1950610, shopName: "伯爵国际私人会所", shopGlng:"121.45062", shopGlat: "31.20295", shopPower:35, shopType:15, mainCategoryName:"会所型KTV", categoryURLName:"KTV", shopGroupId: 1950610,categoryName: NULL,comNum:9条评论
 shopId: 19646663, shopName: "丰歌量贩KTV", shopGlng:"121.49114", shopGlat: "31.33792", shopPower:45, shopType:15, mainCategoryName:"量贩式KTV", categoryURLName:"KTV", shopGroupId: 19646663, categoryName: "K歌",comNum:673条评论
 shopId: 19691851, shopName: "香港无线量贩式KTV", shopGlng:"121.3982", shopGlat: "31.07238", shopPower:35, shopType:15, mainCategoryName:"量贩式KTV", categoryURLName:"KTV", shopGroupId: 19691851, categoryName: "K歌",comNum:253条评论
 shopId: 19699821, shopName: "艾克斯录音棚", shopGlng:"121.5180575", shopGlat: "31.3025891", shopPower:50, shopType:15, mainCategoryName:"录音棚", categoryURLName:"KTV", shopGroupId: 19699821, categoryName: "K歌",comNum:124条评论
 shopId: 19815018, shopName: "69纯k量贩式KTV", shopGlng:"121.229555", shopGlat: "31.23182", shopPower:35, shopType:15, mainCategoryName:"量贩式KTV", categoryURLName:"KTV", shopGroupId: 19815018, categoryName: "K歌",comNum:73条评论
 shopId: 2037043, shopName: "欧唛量贩式ktv", shopGlng:"121.435559", shopGlat: "31.321048", shopPower:45, shopType:15, mainCategoryName:"量贩式KTV", categoryURLName:"KTV", shopGroupId: 2037043, categoryName: "K歌",comNum:464条评论
 shopId: 2060335, shopName: "好乐迪", shopGlng:"121.515481", shopGlat: "31.301541", shopPower:45, shopType:15, mainCategoryName:"量贩式KTV", categoryURLName:"KTV", shopGroupId: 1794796, categoryName: "K歌",comNum:5818条评论
 shopId: 20772692, shopName: "君满堂ktv俱乐部", shopGlng:"121.42077", shopGlat: "31.23438", shopPower:35, shopType:15, mainCategoryName:"会所型KTV", categoryURLName:"KTV", shopGroupId: 20772692, categoryName: "K歌",comNum:7条评论
 shopId: 20830474, shopName: "圣莺国际会所", shopGlng:"121.316502", shopGlat: "31.0134", shopPower:35, shopType:15, mainCategoryName:"量贩式KTV", categoryURLName:"KTV", shopGroupId: 20830474, categoryName: "K歌",comNum:23条评论
 shopId: 20849663, shopName: "唛乐汇主题量贩KTV", shopGlng:"121.525875", shopGlat: "30.833298", shopPower:35, shopType:15, mainCategoryName:"量贩式KTV", categoryURLName:"KTV", shopGroupId: 20849663, categoryName: "K歌",comNum:26条评论
 shopId: 20852912, shopName: "银乐迪INLOVEKTV", shopGlng:"121.48247", shopGlat: "31.25738", shopPower:50, shopType:15, mainCategoryName:"量贩式KTV", categoryURLName:"KTV", shopGroupId: 5164765, categoryName: "K歌",comNum:1081条评论
 shopId: 20885236, shopName: "大聚星量贩KTV", shopGlng:"121.5784", shopGlat: "31.118942", shopPower:45, shopType:15, mainCategoryName:"量贩式KTV", categoryURLName:"KTV", shopGroupId: 20885236, categoryName: "K歌",comNum:569条评论
 shopId: 20942444, shopName: "煌都公馆", shopGlng:"121.572954", shopGlat: "31.137334", shopPower:35, shopType:15, mainCategoryName:"会所型KTV", categoryURLName:"KTV", shopGroupId: 20942444, categoryName: "K歌",comNum:5条评论
 shopId: 20943479, shopName: "迪拜公馆夜总会KTV商务会所", shopGlng:"121.599368", shopGlat: "31.250928", shopPower:35, shopType:15, mainCategoryName:"会所型KTV", categoryURLName:"KTV", shopGroupId: 20943479, categoryName: "K歌",comNum:29条评论
 shopId: 21013493, shopName: "音乐栈主题量贩式KTV", shopGlng:"121.588805", shopGlat: "31.327063", shopPower:40, shopType:15, mainCategoryName:"量贩式KTV", categoryURLName:"KTV", shopGroupId: 21013493, categoryName: "K歌",comNum:165条评论
 shopId: 2111839, shopName: "GalaCity上海歌城", shopGlng:"121.48364", shopGlat: "31.26148", shopPower:40, shopType:15, mainCategoryName:"量贩式KTV", categoryURLName:"KTV", shopGroupId: 1794790, categoryName: "K歌",comNum:2536条评论
 shopId: 21141818, shopName: "一点音乐A Little Music", shopGlng:"121.441562", shopGlat: "31.17711", shopPower:35, shopType:15, mainCategoryName:"录音棚", categoryURLName:"KTV", shopGroupId: 21141818, categoryName: "K歌",comNum:9条评论
 shopId: 21170599, shopName: "上海滩国际公馆", shopGlng:"121.347328", shopGlat: "31.259014", shopPower:35, shopType:15, mainCategoryName:"会所型KTV", categoryURLName:"KTV", shopGroupId: 21170599, categoryName: "K歌",comNum:12条评论
 shopId: 21219987, shopName: "乐圣迪量贩式KTV", shopGlng:"121.40425", shopGlat: "31.00768", shopPower:50, shopType:15, mainCategoryName:"量贩式KTV", categoryURLName:"KTV", shopGroupId: 6075448, categoryName: "K歌",comNum:1140条评论
 shopId: 21248173, shopName: "爱琴鸟时尚量贩KTV", shopGlng:"121.816527", shopGlat: "30.910908", shopPower:40, shopType:15, mainCategoryName:"量贩式KTV", categoryURLName:"KTV", shopGroupId: 21248173, categoryName: "K歌",comNum:36条评论
 shopId: 21302042, shopName: "音悦时光量贩式KTV", shopGlng:"121.34835", shopGlat: "31.26428", shopPower:35, shopType:15, mainCategoryName:"量贩式KTV", categoryURLName:"KTV", shopGroupId: 21302042, categoryName: "K歌",comNum:223条评论
 shopId: 21333210, shopName: "K歌达人量贩式KTV", shopGlng:"121.63255", shopGlat: "31.199", shopPower:40, shopType:15, mainCategoryName:"量贩式KTV", categoryURLName:"KTV", shopGroupId: 8674512, categoryName: "K歌",comNum:476条评论
 shopId: 21358079, shopName: "V8纯K PARTY", shopGlng:"121.235562", shopGlat: "31.006309", shopPower:40, shopType:15, mainCategoryName:"量贩式KTV", categoryURLName:"KTV", shopGroupId: 21358079, categoryName: "K歌",comNum:349条评论
 shopId: 21404319, shopName: "MAGO KTV", shopGlng:"121.4788", shopGlat: "31.22527", shopPower:45, shopType:15, mainCategoryName:"量贩式KTV", categoryURLName:"KTV", shopGroupId: 21404319, categoryName: "K歌",comNum:412条评论
 shopId: 21410723, shopName: "上海亚洲会KTV", shopGlng:"121.39428", shopGlat: "31.18729", shopPower:35, shopType:15, mainCategoryName:"会所型KTV", categoryURLName:"KTV", shopGroupId: 21410723, categoryName: "K歌",comNum:48条评论
 shopId: 21554891, shopName: "乐圣迪量贩式KTV", shopGlng:"121.761773", shopGlat: "31.113229", shopPower:45, shopType:15, mainCategoryName:"量贩式KTV", categoryURLName:"KTV", shopGroupId: 6075448, categoryName: "K歌",comNum:115条评论
 shopId: 21559570, shopName: "自由港梦幻奇缘主题量贩式KTV", shopGlng:"121.45877", shopGlat: "30.9063", shopPower:45, shopType:15, mainCategoryName:"量贩式KTV", categoryURLName:"KTV", shopGroupId: 21559570, categoryName: "K歌",comNum:790条评论
 shopId: 21593098, shopName: "上海超级领唱量贩KTV", shopGlng:"121.313676", shopGlat: "31.012448", shopPower:30, shopType:15, mainCategoryName:"量贩式KTV", categoryURLName:"KTV", shopGroupId: 21593098, categoryName: "K歌",comNum:13条评论
 shopId: 21639263, shopName: "米乐星世界KTV", shopGlng:"121.60133", shopGlat: "31.2036", shopPower:45, shopType:15, mainCategoryName:"量贩式KTV", categoryURLName:"KTV", shopGroupId: 17695701, categoryName: "K歌",comNum:2672条评论
 shopId: 21669194, shopName: "群音汇量贩式KTV", shopGlng:"121.755654", shopGlat: "31.144486", shopPower:45, shopType:15, mainCategoryName:"量贩式KTV", categoryURLName:"KTV", shopGroupId: 21669194, categoryName: "K歌",comNum:95条评论
 shopId: 21680355, shopName: "欣尚歌城量贩KTV", shopGlng:"121.263451", shopGlat: "31.081922", shopPower:35, shopType:15, mainCategoryName:"量贩式KTV", categoryURLName:"KTV", shopGroupId: 5515139, categoryName: "K歌",comNum:25条评论
 shopId: 21685273, shopName: "大地飞歌旗舰店", shopGlng:"121.261463", shopGlat: "31.019453", shopPower:35, shopType:15, mainCategoryName:"量贩式KTV", categoryURLName:"KTV", shopGroupId: 21685273, categoryName: "K歌",comNum:23条评论
 shopId: 21727940, shopName: "唛动纯K", shopGlng:"121.581386", shopGlat: "31.111685", shopPower:35, shopType:15, mainCategoryName:"量贩式KTV", categoryURLName:"KTV", shopGroupId: 21727940, categoryName: "K歌",comNum:538条评论
 shopId: 21744692, shopName: "丽都KTV", shopGlng:"121.38539", shopGlat: "31.17647", shopPower:35, shopType:15, mainCategoryName:"会所型KTV", categoryURLName:"KTV", shopGroupId: 21744692, categoryName: "K歌",comNum:21条评论
 shopId: 21782067, shopName: "梦歌纯K量贩式KTV", shopGlng:"121.2431", shopGlat: "31.3822", shopPower:40, shopType:15, mainCategoryName:"量贩式KTV", categoryURLName:"KTV", shopGroupId: 21782067, categoryName: "K歌",comNum:127条评论
 shopId: 21794060, shopName: "海贝KTV", shopGlng:"121.427733", shopGlat: "31.417226", shopPower:35, shopType:15, mainCategoryName:"会所型KTV", categoryURLName:"KTV", shopGroupId: 21794060, categoryName: "K歌",comNum:47条评论
 shopId: 21803739, shopName: "东方之珠K-PARTY", shopGlng:"121.40419", shopGlat: "31.18633", shopPower:50, shopType:15, mainCategoryName:"量贩式KTV", categoryURLName:"KTV", shopGroupId: 21803739, categoryName: "K歌",comNum:4057条评论
 shopId: 2182795, shopName: "太阳城音乐广场", shopGlng:"121.42555", shopGlat: "31.002372", shopPower:35, shopType:15, mainCategoryName:"量贩式KTV", categoryURLName:"KTV", shopGroupId: 2182795,categoryName: NULL,comNum:248条评论
 shopId: 21838721, shopName: "Enjoy音杰量贩式KTV", shopGlng:"121.43776", shopGlat: "31.26193", shopPower:50, shopType:15, mainCategoryName:"量贩式KTV", categoryURLName:"KTV", shopGroupId: 5535014, categoryName: "K歌",comNum:766条评论
 shopId: 21924558, shopName: "七堡歌城量贩式KTV", shopGlng:"121.48453", shopGlat: "31.30361", shopPower:45, shopType:15, mainCategoryName:"量贩式KTV", categoryURLName:"KTV", shopGroupId: 5488813, categoryName: "K歌",comNum:977条评论
 shopId: 21942569, shopName: "深呼吸量贩式KTV", shopGlng:"121.46105", shopGlat: "30.91524", shopPower:40, shopType:15, mainCategoryName:"量贩式KTV", categoryURLName:"KTV", shopGroupId: 21942569, categoryName: "K歌",comNum:142条评论
 shopId: 22068816, shopName: "一品纯K", shopGlng:"121.167617", shopGlat: "30.886574", shopPower:35, shopType:15, mainCategoryName:"量贩式KTV", categoryURLName:"KTV", shopGroupId: 22068816, categoryName: "K歌",comNum:18条评论
 shopId: 2211466, shopName: "好乐迪", shopGlng:"121.4757", shopGlat: "31.23465", shopPower:45, shopType:15, mainCategoryName:"量贩式KTV", categoryURLName:"KTV", shopGroupId: 1794796, categoryName: "K歌",comNum:6569条评论
 shopId: 22301145, shopName: "钱柜partyworld", shopGlng:"121.220892", shopGlat: "31.038111", shopPower:50, shopType:15, mainCategoryName:"量贩式KTV", categoryURLName:"KTV", shopGroupId: 22301145, categoryName: "K歌",comNum:362条评论
 shopId: 22310485, shopName: "豪泰量贩式KTV", shopGlng:"121.19655", shopGlat: "31.01645", shopPower:45, shopType:15, mainCategoryName:"量贩式KTV", categoryURLName:"KTV", shopGroupId: 22310485, categoryName: "K歌",comNum:285条评论
 shopId: 22712685, shopName: "Johnny Ray Studio", shopGlng:"121.42608", shopGlat: "31.18219", shopPower:35, shopType:15, mainCategoryName:"录音棚", categoryURLName:"KTV", shopGroupId: 22712685, categoryName: "K歌",comNum:7条评论
 shopId: 22898300, shopName: "錢柜", shopGlng:"121.44282", shopGlat: "31.18522", shopPower:35, shopType:15, mainCategoryName:"量贩式KTV", categoryURLName:"KTV", shopGroupId: 22898300, categoryName: "K歌",comNum:7条评论
 shopId: 22925515, shopName: "KING COIN 猩王部落 量贩KTV", shopGlng:"121.4308", shopGlat: "31.23359", shopPower:50, shopType:15, mainCategoryName:"量贩式KTV", categoryURLName:"KTV", shopGroupId: 22925515, categoryName: "K歌",comNum:1073条评论
 shopId: 22950272, shopName: "华帝公馆", shopGlng:"121.616394", shopGlat: "31.204862", shopPower:35, shopType:15, mainCategoryName:"会所型KTV", categoryURLName:"KTV", shopGroupId: 22950272, categoryName: "K歌",comNum:6条评论
 shopId: 23052766, shopName: "悦聲量贩式KTV", shopGlng:"121.15903681584552", shopGlat: "31.289758292113387", shopPower:35, shopType:15, mainCategoryName:"量贩式KTV", categoryURLName:"KTV", shopGroupId: 23052766, categoryName: "K歌",comNum:114条评论
 shopId: 23126097, shopName: "歌影录音棚", shopGlng:"121.498411", shopGlat: "31.240311", shopPower:40, shopType:15, mainCategoryName:"录音棚", categoryURLName:"KTV", shopGroupId: 23126097, categoryName: "K歌",comNum:14条评论
 shopId: 23196189, shopName: "欢歌天天量贩式KTV", shopGlng:"121.407067", shopGlat: "31.326438", shopPower:35, shopType:15, mainCategoryName:"量贩式KTV", categoryURLName:"KTV", shopGroupId: 5273885, categoryName: "K歌",comNum:198条评论
 shopId: 2320924, shopName: "乐翻天量贩式KTV", shopGlng:"121.382038", shopGlat: "31.315429", shopPower:35, shopType:15, mainCategoryName:"量贩式KTV", categoryURLName:"KTV", shopGroupId: 2320924, categoryName: "K歌",comNum:205条评论
 shopId: 23210518, shopName: "泛洋花样年华KTV", shopGlng:"121.44296", shopGlat: "31.23613", shopPower:30, shopType:15, mainCategoryName:"会所型KTV", categoryURLName:"KTV", shopGroupId: 23210518, categoryName: "K歌",comNum:6条评论
 shopId: 23251090, shopName: "BigE娱乐中心", shopGlng:"121.438378", shopGlat: "31.275711", shopPower:50, shopType:15, mainCategoryName:"量贩式KTV", categoryURLName:"KTV", shopGroupId: 8025468, categoryName: "K歌",comNum:865条评论
 shopId: 23471041, shopName: "韦韦ktv", shopGlng:"121.392882", shopGlat: "31.180382", shopPower:35, shopType:15, mainCategoryName:"会所型KTV", categoryURLName:"KTV", shopGroupId: 23471041, categoryName: "K歌",comNum:2条评论
 shopId: 2351614, shopName: "美好时光KTV", shopGlng:"121.468707", shopGlat: "31.244478", shopPower:35, shopType:15, mainCategoryName:"会所型KTV", categoryURLName:"KTV", shopGroupId: 2351614, categoryName: "K歌",comNum:1条评论
 shopId: 23594612, shopName: "金桔量贩式KTV", shopGlng:"121.411773", shopGlat: "31.271117", shopPower:50, shopType:15, mainCategoryName:"量贩式KTV", categoryURLName:"KTV", shopGroupId: 23594612, categoryName: "K歌",comNum:1431条评论
 shopId: 23618073, shopName: "K-SHOW量贩ktv", shopGlng:"121.587567", shopGlat: "31.271423", shopPower:50, shopType:15, mainCategoryName:"量贩式KTV", categoryURLName:"KTV", shopGroupId: 23618073, categoryName: "K歌",comNum:693条评论
 shopId: 2372317, shopName: "上海歌城", shopGlng:"121.473663", shopGlat: "31.23503", shopPower:35, shopType:15, mainCategoryName:"量贩式KTV", categoryURLName:"KTV", shopGroupId: 1794790, categoryName: "K歌",comNum:18379条评论
 shopId: 2388115, shopName: "华都国际夜总会", shopGlng:"121.464482", shopGlat: "31.198797", shopPower:35, shopType:15, mainCategoryName:"会所型KTV", categoryURLName:"KTV", shopGroupId: 2388115, categoryName: "K歌",comNum:50条评论
 shopId: 23884415, shopName: "丽歌坊量贩式ktv", shopGlng:"121.349576", shopGlat: "31.15601", shopPower:45, shopType:15, mainCategoryName:"量贩式KTV", categoryURLName:"KTV", shopGroupId: 23884415, categoryName: "K歌",comNum:1133条评论
 shopId: 2399698, shopName: "金迪娱乐总汇", shopGlng:"121.534779", shopGlat: "31.271165", shopPower:30, shopType:15, mainCategoryName:"会所型KTV", categoryURLName:"KTV", shopGroupId: 2399698, categoryName: "K歌",comNum:15条评论
 shopId: 24040513, shopName: "音悦汇量贩KTV", shopGlng:"121.240037", shopGlat: "31.017684", shopPower:40, shopType:15, mainCategoryName:"量贩式KTV", categoryURLName:"KTV", shopGroupId: 24040513, categoryName: "K歌",comNum:113条评论
 shopId: 2423665, shopName: "外滩8弄专业录音棚", shopGlng:"121.489629", shopGlat: "31.235136", shopPower:35, shopType:15, mainCategoryName:"录音棚", categoryURLName:"KTV", shopGroupId: 2423665, categoryName: "K歌",comNum:322条评论
 shopId: 24299580, shopName: "聆客音乐工作室linkstudio", shopGlng:"121.42415", shopGlat: "31.22185", shopPower:35, shopType:15, mainCategoryName:"录音棚", categoryURLName:"KTV", shopGroupId: 24299580, categoryName: "K歌",comNum:5条评论
 shopId: 24305322, shopName: "Hi!Muse", shopGlng:"121.45893", shopGlat: "31.20514", shopPower:40, shopType:15, mainCategoryName:"录音棚", categoryURLName:"KTV", shopGroupId: 24305322, categoryName: "K歌",comNum:28条评论
 shopId: 24321259, shopName: "龍亨国际名商会所", shopGlng:"121.46866", shopGlat: "31.220535", shopPower:35, shopType:15, mainCategoryName:"会所型KTV", categoryURLName:"KTV", shopGroupId: 24321259, categoryName: "K歌",comNum:15条评论
 shopId: 2447617, shopName: "好乐迪", shopGlng:"121.45475", shopGlat: "31.23021", shopPower:45, shopType:15, mainCategoryName:"量贩式KTV", categoryURLName:"KTV", shopGroupId: 1794796, categoryName: "K歌",comNum:4705条评论
 shopId: 2453164, shopName: "羚羊海滩夜总会", shopGlng:"121.469984", shopGlat: "31.204262", shopPower:35, shopType:15, mainCategoryName:"会所型KTV", categoryURLName:"KTV", shopGroupId: 2453164, categoryName: "K歌",comNum:15条评论
 shopId: 24709636, shopName: "鑫梦苑会所", shopGlng:"121.330068", shopGlat: "31.222381", shopPower:35, shopType:15, mainCategoryName:"会所型KTV", categoryURLName:"KTV", shopGroupId: 24709636, categoryName: "K歌",comNum:2条评论
 shopId: 24739294, shopName: "陈诗能音乐工作室", shopGlng:"121.405417", shopGlat: "31.142361", shopPower:40, shopType:15, mainCategoryName:"录音棚", categoryURLName:"KTV", shopGroupId: 24739294, categoryName: "K歌",comNum:15条评论
 shopId: 24831072, shopName: "上海纯K", shopGlng:"121.364632", shopGlat: "31.25878", shopPower:40, shopType:15, mainCategoryName:"量贩式KTV", categoryURLName:"KTV", shopGroupId: 24831072, categoryName: "K歌",comNum:336条评论
 shopId: 24872581, shopName: "王子公主奇遇记主题KTV", shopGlng:"121.447071", shopGlat: "31.323739", shopPower:50, shopType:15, mainCategoryName:"量贩式KTV", categoryURLName:"KTV", shopGroupId: 8530356, categoryName: "K歌",comNum:85条评论
 shopId: 24890659, shopName: "乐坊", shopGlng:"121.365407", shopGlat: "31.259094", shopPower:35, shopType:15, mainCategoryName:"KTV", categoryURLName:"KTV", shopGroupId: 24890659, categoryName: "K歌",comNum:9条评论
 shopId: 24968468, shopName: "k歌之星", shopGlng:"121.31578", shopGlat: "31.147345", shopPower:45, shopType:15, mainCategoryName:"量贩式KTV", categoryURLName:"KTV", shopGroupId: 24968468, categoryName: "K歌",comNum:368条评论
 shopId: 2498860, shopName: "香港新坐标量贩式ktv", shopGlng:"121.427354", shopGlat: "31.268514", shopPower:45, shopType:15, mainCategoryName:"量贩式KTV", categoryURLName:"KTV", shopGroupId: 2498860, categoryName: "K歌",comNum:452条评论
 shopId: 25009055, shopName: "金山纯K", shopGlng:"121.342933", shopGlat: "30.725059", shopPower:40, shopType:15, mainCategoryName:"量贩式KTV", categoryURLName:"KTV", shopGroupId: 25009055, categoryName: "K歌",comNum:40条评论
 shopId: 2509066, shopName: "好乐迪", shopGlng:"121.4119", shopGlat: "31.27261", shopPower:45,shopType: NULL,mainCategoryName: NULL,categoryURLName: NULL,shopGroupId: NULL,categoryName: NULL,comNum:2414条评论
 shopId: 2517559, shopName: "金色豪门KTV", shopGlng:"121.490161", shopGlat: "31.289732", shopPower:30, shopType:15, mainCategoryName:"会所型KTV", categoryURLName:"KTV", shopGroupId: 2517559, categoryName: "K歌",comNum:10条评论
 shopId: 2542840, shopName: "好乐迪", shopGlng:"121.3838838297822", shopGlat: "31.2453683565947", shopPower:45, shopType:15, mainCategoryName:"量贩式KTV", categoryURLName:"KTV", shopGroupId: 1794796, categoryName: "K歌",comNum:3403条评论
 shopId: 2652631, shopName: "好乐迪", shopGlng:"121.483923", shopGlat: "30.914812", shopPower:50, shopType:15, mainCategoryName:"量贩式KTV", categoryURLName:"KTV", shopGroupId: 1794796, categoryName: "K歌",comNum:1618条评论
 shopId: 2675875, shopName: "威尼斯商务会所", shopGlng:"121.387229", shopGlat: "31.206808", shopPower:35, shopType:15, mainCategoryName:"会所型KTV", categoryURLName:"KTV", shopGroupId: 2675875, categoryName: "K歌",comNum:29条评论
 shopId: 2683216, shopName: "扬歌量贩式KTV", shopGlng:"121.48363", shopGlat: "31.400752", shopPower:40, shopType:15, mainCategoryName:"量贩式KTV", categoryURLName:"KTV", shopGroupId: 1794922, categoryName: "K歌",comNum:1556条评论
 shopId: 27007516, shopName: "梦歌纯k", shopGlng:"121.454326", shopGlat: "31.397778", shopPower:50, shopType:15, mainCategoryName:"量贩式KTV", categoryURLName:"KTV", shopGroupId: 27007516, categoryName: "K歌",comNum:182条评论
 shopId: 27007517, shopName: "亮歌量贩式ktv", shopGlng:"121.31961", shopGlat: "31.29161", shopPower:45, shopType:15, mainCategoryName:"量贩式KTV", categoryURLName:"KTV", shopGroupId: 27007517, categoryName: "K歌",comNum:262条评论
 shopId: 27007518, shopName: "Maxyou量贩式漫游纯K", shopGlng:"121.698", shopGlat: "31.1839", shopPower:35, shopType:15, mainCategoryName:"量贩式KTV", categoryURLName:"KTV", shopGroupId: 27007518, categoryName: "K歌",comNum:27条评论
 shopId: 27007524, shopName: "晨星纯K", shopGlng:"121.31283", shopGlat: "31.046692", shopPower:35, shopType:15, mainCategoryName:"量贩式KTV", categoryURLName:"KTV", shopGroupId: 27007524, categoryName: "K歌",comNum:7条评论
 shopId: 27011897, shopName: "皇家永利会所", shopGlng:"121.211502", shopGlat: "31.042793", shopPower:35, shopType:15, mainCategoryName:"会所型KTV", categoryURLName:"KTV", shopGroupId: 27011897, categoryName: "K歌",comNum:6条评论
 shopId: 27022410, shopName: "21号音乐公园ktv", shopGlng:"121.112991", shopGlat: "31.147562", shopPower:50, shopType:15, mainCategoryName:"量贩式KTV", categoryURLName:"KTV", shopGroupId: 27022410, categoryName: "K歌",comNum:279条评论
 shopId: 27200777, shopName: "大骏文化一只蜗牛录音棚", shopGlng:"121.51534", shopGlat: "31.264018", shopPower:40, shopType:15, mainCategoryName:"录音棚", categoryURLName:"KTV", shopGroupId: 27200777, categoryName: "K歌",comNum:15条评论
 shopId: 27240511, shopName: "奕和录音棚", shopGlng:"121.41537", shopGlat: "31.110487", shopPower:40, shopType:15, mainCategoryName:"录音棚", categoryURLName:"KTV", shopGroupId: 27240511, categoryName: "K歌",comNum:46条评论
 shopId: 2787073, shopName: "国色天香KTV", shopGlng:"121.46095", shopGlat: "31.26978", shopPower:30, shopType:15, mainCategoryName:"会所型KTV", categoryURLName:"KTV", shopGroupId: 2787073, categoryName: "K歌",comNum:34条评论
 shopId: 32340348, shopName: "GalaCity上海歌城", shopGlng:"121.53862", shopGlat: "31.26483", shopPower:50, shopType:15, mainCategoryName:"量贩式KTV", categoryURLName:"KTV", shopGroupId: 1794790, categoryName: "K歌",comNum:784条评论
 shopId: 32485113, shopName: "辰皇娱乐", shopGlng:"121.406852", shopGlat: "31.022004", shopPower:35, shopType:15, mainCategoryName:"会所型KTV", categoryURLName:"KTV", shopGroupId: 32485113, categoryName: "K歌",comNum:2条评论
 shopId: 3251476, shopName: "锦绣天堂KTV", shopGlng:"121.528592", shopGlat: "31.240358", shopPower:35, shopType:15, mainCategoryName:"会所型KTV", categoryURLName:"KTV", shopGroupId: 3251476, categoryName: "K歌",comNum:24条评论
 shopId: 32522514, shopName: "宝乐迪量贩式ktv", shopGlng:"121.591003", shopGlat: "31.253703", shopPower:45, shopType:15, mainCategoryName:"量贩式KTV", categoryURLName:"KTV", shopGroupId: 32522514, categoryName: "K歌",comNum:486条评论
 shopId: 3252925, shopName: "良涛KTV", shopGlng:"121.6118", shopGlat: "31.20431", shopPower:30, shopType:15, mainCategoryName:"会所型KTV", categoryURLName:"KTV", shopGroupId: 3252925, categoryName: "K歌",comNum:4条评论
 shopId: 32704530, shopName: "六七八ktv", shopGlng:"121.52778", shopGlat: "30.82777", shopPower:35, shopType:15, mainCategoryName:"量贩式KTV", categoryURLName:"KTV", shopGroupId: 32704530, categoryName: "K歌",comNum:5条评论
 shopId: 32853048, shopName: "名帝会", shopGlng:"121.571033", shopGlat: "31.113775", shopPower:40, shopType:15, mainCategoryName:"会所型KTV", categoryURLName:"KTV", shopGroupId: 32853048, categoryName: "K歌",comNum:12条评论
 shopId: 32854624, shopName: "上海天上人间商务会所", shopGlng:"121.431487", shopGlat: "31.233046", shopPower:35, shopType:15, mainCategoryName:"会所型KTV", categoryURLName:"KTV", shopGroupId: 32854624, categoryName: "K歌",comNum:28条评论
 shopId: 32863771, shopName: "金熙宫ktv", shopGlng:"121.42245", shopGlat: "31.4181", shopPower:30, shopType:15, mainCategoryName:"量贩式KTV", categoryURLName:"KTV", shopGroupId: 32863771, categoryName: "K歌",comNum:6条评论
 shopId: 3298828, shopName: "鑫城KTV", shopGlng:"121.520952", shopGlat: "31.32129", shopPower:35, shopType:15, mainCategoryName:"会所型KTV", categoryURLName:"KTV", shopGroupId: 3298828, categoryName: "K歌",comNum:20条评论
 shopId: 3317002, shopName: "后街量贩KTV", shopGlng:"121.210852", shopGlat: "31.039867", shopPower:40, shopType:15, mainCategoryName:"量贩式KTV", categoryURLName:"KTV", shopGroupId: 3317002, categoryName: "K歌",comNum:291条评论
 shopId: 3339670, shopName: "WaveStudio 音浪录音棚", shopGlng:"121.447561", shopGlat: "31.188241", shopPower:50, shopType:15, mainCategoryName:"录音棚", categoryURLName:"KTV", shopGroupId: 3339670, categoryName: "K歌",comNum:320条评论
 shopId: 3347221, shopName: "海上瀛台", shopGlng:"121.5204", shopGlat: "31.29473", shopPower:35, shopType:15, mainCategoryName:"会所型KTV", categoryURLName:"KTV", shopGroupId: 3347221, categoryName: "K歌",comNum:17条评论
 shopId: 3350803, shopName: "唱享纯K PARTY", shopGlng:"121.449632", shopGlat: "31.304602", shopPower:40, shopType:15, mainCategoryName:"量贩式KTV", categoryURLName:"KTV", shopGroupId: 1898863, categoryName: "K歌",comNum:418条评论
 shopId: 33582858, shopName: "都唛主题式量贩ktv", shopGlng:"121.364522", shopGlat: "31.253749", shopPower:50, shopType:15, mainCategoryName:"量贩式KTV", categoryURLName:"KTV", shopGroupId: 33582858, categoryName: "K歌",comNum:303条评论
 shopId: 3364540, shopName: "星皇宫KTV", shopGlng:"121.429898", shopGlat: "31.246884", shopPower:30, shopType:15, mainCategoryName:"会所型KTV", categoryURLName:"KTV", shopGroupId: 3364540, categoryName: "K歌",comNum:15条评论
 shopId: 34068804, shopName: "皇家一号量贩式娱乐会所", shopGlng:"121.44973", shopGlat: "30.90357", shopPower:30, shopType:15, mainCategoryName:"会所型KTV", categoryURLName:"KTV", shopGroupId: 34068804, categoryName: "K歌",comNum:7条评论
 shopId: 3482563, shopName: "自由港量贩式KTV", shopGlng:"121.47046", shopGlat: "31.2063", shopPower:50, shopType:15, mainCategoryName:"量贩式KTV", categoryURLName:"KTV", shopGroupId: 1899244, categoryName: "K歌",comNum:4048条评论
 shopId: 3516316, shopName: "皇宫国际娱乐会所", shopGlng:"121.4578877", shopGlat: "31.260088", shopPower:35, shopType:15, mainCategoryName:"会所型KTV", categoryURLName:"KTV", shopGroupId: 3516316, categoryName: "K歌",comNum:5条评论
 shopId: 3545266, shopName: "君旺阁娱乐会所", shopGlng:"121.49255", shopGlat: "31.312072", shopPower:30, shopType:15, mainCategoryName:"会所型KTV", categoryURLName:"KTV", shopGroupId: 3545266, categoryName: "K歌",comNum:27条评论
 shopId: 3656602, shopName: "大上海帝国公馆国际商务俱乐部", shopGlng:"121.439424", shopGlat: "31.240652", shopPower:40, shopType:15, mainCategoryName:"会所型KTV", categoryURLName:"KTV", shopGroupId: 3656602, categoryName: "K歌",comNum:90条评论
 shopId: 3659182, shopName: "迪亚士KTV", shopGlng:"121.697735", shopGlat: "31.195292", shopPower:45, shopType:15, mainCategoryName:"量贩式KTV", categoryURLName:"KTV", shopGroupId: 2628031, categoryName: "K歌",comNum:397条评论
 shopId: 3681730, shopName: "上海歌城", shopGlng:"121.465364", shopGlat: "31.219754", shopPower:40, shopType:15, mainCategoryName:"量贩式KTV", categoryURLName:"KTV", shopGroupId: 1794790, categoryName: "K歌",comNum:3956条评论
 shopId: 3691735, shopName: "惠顺bar", shopGlng:"121.5163", shopGlat: "31.20894", shopPower:35, shopType:15, mainCategoryName:"会所型KTV", categoryURLName:"KTV", shopGroupId: 3691735, categoryName: "K歌",comNum:7条评论
 shopId: 3713872, shopName: "麦迪森", shopGlng:"121.48216", shopGlat: "31.26556", shopPower:35, shopType:15, mainCategoryName:"量贩式KTV", categoryURLName:"KTV", shopGroupId: 1794874, categoryName: "K歌",comNum:995条评论
 shopId: 38160316, shopName: "唛迪纯K", shopGlng:"121.1061", shopGlat: "31.21362", shopPower:35, shopType:15, mainCategoryName:"量贩式KTV", categoryURLName:"KTV", shopGroupId: 38160316, categoryName: "K歌",comNum:10条评论
 shopId: 38309210, shopName: "好乐迪", shopGlng:"121.51744", shopGlat: "31.27483", shopPower:45, shopType:15, mainCategoryName:"量贩式KTV", categoryURLName:"KTV", shopGroupId: 38309210, categoryName: "K歌",comNum:1327条评论
 shopId: 3884629, shopName: "上海歌城", shopGlng:"121.5789", shopGlat: "31.25682", shopPower:35, shopType:15, mainCategoryName:"量贩式KTV", categoryURLName:"KTV", shopGroupId: 1794790, categoryName: "K歌",comNum:3426条评论
 shopId: 3899098, shopName: "东金KTV", shopGlng:"121.575474", shopGlat: "31.343437", shopPower:30, shopType:15, mainCategoryName:"会所型KTV", categoryURLName:"KTV", shopGroupId: 3899098, categoryName: "K歌",comNum:4条评论
 shopId: 4019023, shopName: "缤纷歌城", shopGlng:"121.437614", shopGlat: "31.262457", shopPower:35, shopType:15, mainCategoryName:"量贩式KTV", categoryURLName:"KTV", shopGroupId: 2887213, categoryName: "K歌",comNum:105条评论
 shopId: 40642427, shopName: "万象国际夜总会", shopGlng:"121.371083", shopGlat: "31.176733", shopPower:35, shopType:15, mainCategoryName:"会所型KTV", categoryURLName:"KTV", shopGroupId: 40642427, categoryName: "K歌",comNum:11条评论
 shopId: 4096757, shopName: "土土录音棚", shopGlng:"121.498608", shopGlat: "31.27292", shopPower:45, shopType:15, mainCategoryName:"录音棚", categoryURLName:"KTV", shopGroupId: 4096757, categoryName: "K歌",comNum:476条评论
 shopId: 41000911, shopName: "K CLUB", shopGlng:"121.493722", shopGlat: "31.261307", shopPower:35, shopType:15, mainCategoryName:"KTV", categoryURLName:"KTV", shopGroupId: 41000911, categoryName: "K歌",comNum:1条评论
 shopId: 4112213, shopName: "好乐迪", shopGlng:"121.427342", shopGlat: "31.230445", shopPower:40,shopType: NULL,mainCategoryName: NULL,categoryURLName: NULL,shopGroupId: NULL,categoryName: NULL,comNum:2820条评论
 shopId: 41260043, shopName: "亚洲红馆", shopGlng:"121.27917", shopGlat: "31.38526", shopPower:35, shopType:15, mainCategoryName:"会所型KTV", categoryURLName:"KTV", shopGroupId: 41260043, categoryName: "K歌",comNum:6条评论
 shopId: 4134705, shopName: "自由麦客量贩式KTV", shopGlng:"121.342485", shopGlat: "31.260847", shopPower:40, shopType:15, mainCategoryName:"量贩式KTV", categoryURLName:"KTV", shopGroupId: 4134705, categoryName: "K歌",comNum:685条评论
 shopId: 41486583, shopName: "国樽会所量贩ktv", shopGlng:"121.35928", shopGlat: "31.38338", shopPower:30, shopType:15, mainCategoryName:"量贩式KTV", categoryURLName:"KTV", shopGroupId: 41486583, categoryName: "K歌",comNum:15条评论
 shopId: 4187918, shopName: "上海秀麦量贩KTV", shopGlng:"121.693389892578", shopGlat: "31.1805839538574", shopPower:45, shopType:15, mainCategoryName:"量贩式KTV", categoryURLName:"KTV", shopGroupId: 4187918, categoryName: "K歌",comNum:354条评论
 shopId: 4198131, shopName: "鼎红国际KTV", shopGlng:"121.434681", shopGlat: "31.274556", shopPower:35, shopType:15, mainCategoryName:"会所型KTV", categoryURLName:"KTV", shopGroupId: 4198131, categoryName: "K歌",comNum:11条评论
 shopId: 4206306, shopName: "上海歌城", shopGlng:"121.52471", shopGlat: "31.22747", shopPower:35, shopType:15, mainCategoryName:"量贩式KTV", categoryURLName:"KTV", shopGroupId: 1794790, categoryName: "K歌",comNum:3177条评论
 shopId: 4228374, shopName: "远洋国际会所KTV", shopGlng:"121.51025", shopGlat: "31.25246", shopPower:35, shopType:15, mainCategoryName:"会所型KTV", categoryURLName:"KTV", shopGroupId: 4228374, categoryName: "K歌",comNum:6条评论
 shopId: 4274322, shopName: "夜明珠", shopGlng:"121.523975", shopGlat: "31.226457", shopPower:35, shopType:15, mainCategoryName:"会所型KTV", categoryURLName:"KTV", shopGroupId: 4274322,categoryName: NULL,comNum:43条评论
 shopId: 4275452, shopName: "花开富贵", shopGlng:"121.39191", shopGlat: "31.102279", shopPower:30, shopType:15, mainCategoryName:"会所型KTV", categoryURLName:"KTV", shopGroupId: 4275452, categoryName: "K歌",comNum:9条评论
 shopId: 4285241, shopName: "好乐迪量贩式KTV", shopGlng:"121.347332", shopGlat: "30.731737", shopPower:45, shopType:15, mainCategoryName:"量贩式KTV", categoryURLName:"KTV", shopGroupId: 1794796, categoryName: "K歌",comNum:424条评论
 shopId: 43925285, shopName: "好歌声KTV", shopGlng:"121.269358", shopGlat: "31.240956", shopPower:20, shopType:15, mainCategoryName:"量贩式KTV", categoryURLName:"KTV", shopGroupId: 43925285, categoryName: "K歌",comNum:12条评论
 shopId: 44099371, shopName: "麦古时尚KTV", shopGlng:"121.327559", shopGlat: "30.732284", shopPower:40, shopType:15, mainCategoryName:"量贩式KTV", categoryURLName:"KTV", shopGroupId: 44099371, categoryName: "K歌",comNum:30条评论
 shopId: 4505952, shopName: "欢畅量贩KTV", shopGlng:"121.5205205", shopGlat: "31.29729334", shopPower:40, shopType:15, mainCategoryName:"量贩式KTV", categoryURLName:"KTV", shopGroupId: 4505952, categoryName: "K歌",comNum:707条评论
 shopId: 4512677, shopName: "飞天量贩KTV", shopGlng:"121.2844415092621", shopGlat: "31.11581804241911", shopPower:35, shopType:15, mainCategoryName:"量贩式KTV", categoryURLName:"KTV", shopGroupId: 4512677, categoryName: "K歌",comNum:224条评论
 shopId: 45252543, shopName: "BEST KTV K货料理", shopGlng:"121.35018", shopGlat: "31.09743", shopPower:40, shopType:15, mainCategoryName:"量贩式KTV", categoryURLName:"KTV", shopGroupId: 45252543, categoryName: "K歌",comNum:258条评论
 shopId: 4545804, shopName: "西宫主题歌城", shopGlng:"121.42082", shopGlat: "31.238143", shopPower:35, shopType:15, mainCategoryName:"量贩式KTV", categoryURLName:"KTV", shopGroupId: 4545804, categoryName: "K歌",comNum:419条评论
 shopId: 4556221, shopName: "金尚量贩式KTV视听歌城", shopGlng:"121.34426", shopGlat: "30.72487209", shopPower:35, shopType:15, mainCategoryName:"量贩式KTV", categoryURLName:"KTV", shopGroupId: 4556221, categoryName: "K歌",comNum:40条评论
 shopId: 4556395, shopName: "好乐迪", shopGlng:"121.51712", shopGlat: "31.2281", shopPower:45, shopType:15, mainCategoryName:"量贩式KTV", categoryURLName:"KTV", shopGroupId: 1794796, categoryName: "K歌",comNum:4778条评论
 shopId: 4560169, shopName: "乐伴湾量贩式KTV", shopGlng:"121.46759", shopGlat: "31.265536", shopPower:35, shopType:15, mainCategoryName:"量贩式KTV", categoryURLName:"KTV", shopGroupId: 3563416, categoryName: "K歌",comNum:386条评论
 shopId: 4564031, shopName: "好乐迪", shopGlng:"121.37843", shopGlat: "31.10869", shopPower:50, shopType:15, mainCategoryName:"量贩式KTV", categoryURLName:"KTV", shopGroupId: 1794796, categoryName: "K歌",comNum:2747条评论
 shopId: 4619100, shopName: "英皇国际KTV夜总会", shopGlng:"121.427992", shopGlat: "31.231802", shopPower:30, shopType:15, mainCategoryName:"会所型KTV", categoryURLName:"KTV", shopGroupId: 4619100, categoryName: "K歌",comNum:32条评论
 shopId: 4660998, shopName: "好乐迪", shopGlng:"121.47216", shopGlat: "31.24308", shopPower:40, shopType:15, mainCategoryName:"量贩式KTV", categoryURLName:"KTV", shopGroupId: 1794796, categoryName: "K歌",comNum:4594条评论
 shopId: 4675288, shopName: "天空音乐城", shopGlng:"121.531593", shopGlat: "31.288165", shopPower:40, shopType:15, mainCategoryName:"量贩式KTV", categoryURLName:"KTV", shopGroupId: 4675288, categoryName: "K歌",comNum:309条评论
 shopId: 4679097, shopName: "优麦量贩式KTV", shopGlng:"121.4236", shopGlat: "31.12333", shopPower:45, shopType:15, mainCategoryName:"量贩式KTV", categoryURLName:"KTV", shopGroupId: 4679097, categoryName: "K歌",comNum:119条评论
 shopId: 4679906, shopName: "圣地亚歌量贩式KTV", shopGlng:"121.70575", shopGlat: "31.1896", shopPower:40, shopType:15, mainCategoryName:"量贩式KTV", categoryURLName:"KTV", shopGroupId: 4679906, categoryName: "K歌",comNum:89条评论
 shopId: 4689763, shopName: "新清荣俱乐部", shopGlng:"121.5383601", shopGlat: "31.31951355", shopPower:35, shopType:15, mainCategoryName:"会所型KTV", categoryURLName:"KTV", shopGroupId: 4689763, categoryName: "K歌",comNum:2条评论
 shopId: 4698013, shopName: "都市艺员录音棚", shopGlng:"121.458362", shopGlat: "31.197602", shopPower:35, shopType:15, mainCategoryName:"录音棚", categoryURLName:"KTV", shopGroupId: 4698013, categoryName: "K歌",comNum:354条评论
 shopId: 4700710, shopName: "乐伴湾量贩式KTV", shopGlng:"121.436312", shopGlat: "31.323976", shopPower:35, shopType:15, mainCategoryName:"量贩式KTV", categoryURLName:"KTV", shopGroupId: 3563416, categoryName: "K歌",comNum:111条评论
 shopId: 48025468, shopName: "尚南歌城量贩式ktv", shopGlng:"121.529996", shopGlat: "31.125312", shopPower:40, shopType:15, mainCategoryName:"量贩式KTV", categoryURLName:"KTV", shopGroupId: 48025468, categoryName: "K歌",comNum:105条评论
 shopId: 48158029, shopName: "金都会所ktv", shopGlng:"121.3492", shopGlat: "31.17062", shopPower:40, shopType:15, mainCategoryName:"会所型KTV", categoryURLName:"KTV", shopGroupId: 48158029,categoryName: NULL,comNum:3条评论
 shopId: 50376166, shopName: "爱情小公馆", shopGlng:"121.202886", shopGlat: "31.016409", shopPower:0, shopType:15, mainCategoryName:"KTV", categoryURLName:"KTV", shopGroupId: 50376166, categoryName: "K歌",comNum:0条评论
 shopId: 5103916, shopName: "唱翻天饭饭式KTV", shopGlng:"121.41168", shopGlat: "31.27281", shopPower:50, shopType:15, mainCategoryName:"量贩式KTV", categoryURLName:"KTV", shopGroupId: 5103916, categoryName: "K歌",comNum:834条评论
 shopId: 5157820, shopName: "嗨歌", shopGlng:"121.669204", shopGlat: "31.23802", shopPower:35, shopType:15, mainCategoryName:"量贩式KTV", categoryURLName:"KTV", shopGroupId: 5157820,categoryName: NULL,comNum:149条评论
 shopId: 5164765, shopName: "银乐迪INLOVE KTV", shopGlng:"121.47696", shopGlat: "31.270695", shopPower:45, shopType:15, mainCategoryName:"量贩式KTV", categoryURLName:"KTV", shopGroupId: 5164765, categoryName: "K歌",comNum:4320条评论
 shopId: 5175122, shopName: "绿银绿ktv", shopGlng:"121.44264", shopGlat: "31.10501", shopPower:35, shopType:15, mainCategoryName:"会所型KTV", categoryURLName:"KTV", shopGroupId: 5175122, categoryName: "K歌",comNum:6条评论
 shopId: 5192865, shopName: "派之星量贩式KTV", shopGlng:"121.46672", shopGlat: "31.041574", shopPower:35, shopType:15, mainCategoryName:"量贩式KTV", categoryURLName:"KTV", shopGroupId: 5192865, categoryName: "K歌",comNum:237条评论
 shopId: 5213430, shopName: "花熙", shopGlng:"121.52414", shopGlat: "31.29381", shopPower:35, shopType:15, mainCategoryName:"会所型KTV", categoryURLName:"KTV", shopGroupId: 5213430, categoryName: "K歌",comNum:12条评论
 shopId: 5224005, shopName: "云豹量贩KTV", shopGlng:"121.21054", shopGlat: "31.03911422", shopPower:45, shopType:15, mainCategoryName:"量贩式KTV", categoryURLName:"KTV", shopGroupId: 5224005,categoryName: NULL,comNum:437条评论
 shopId: 5228123, shopName: "巨麦时尚KTV", shopGlng:"121.491115", shopGlat: "31.262449", shopPower:30, shopType:15, mainCategoryName:"量贩式KTV", categoryURLName:"KTV", shopGroupId: 1893055, categoryName: "K歌",comNum:347条评论
 shopId: 5228137, shopName: "巨麦时尚KTV", shopGlng:"121.38598", shopGlat: "31.315225", shopPower:40, shopType:15, mainCategoryName:"量贩式KTV", categoryURLName:"KTV", shopGroupId: 1893055, categoryName: "K歌",comNum:481条评论
 shopId: 52352715, shopName: "海上歌友", shopGlng:"121.816076", shopGlat: "30.906084", shopPower:35, shopType:15, mainCategoryName:"量贩式KTV", categoryURLName:"KTV", shopGroupId: 52352715, categoryName: "K歌",comNum:51条评论
 shopId: 5235421, shopName: "汇都国际商务会所", shopGlng:"121.480972", shopGlat: "31.22695", shopPower:35, shopType:15, mainCategoryName:"会所型KTV", categoryURLName:"KTV", shopGroupId: 5235421, categoryName: "K歌",comNum:40条评论
 shopId: 5244638, shopName: "中泰量贩式KTV", shopGlng:"121.164464", shopGlat: "31.301445", shopPower:35, shopType:15, mainCategoryName:"量贩式KTV", categoryURLName:"KTV", shopGroupId: 5244638, categoryName: "K歌",comNum:58条评论
 shopId: 5248996, shopName: "麦颂量贩式KTV", shopGlng:"121.235004", shopGlat: "31.005416", shopPower:40, shopType:15, mainCategoryName:"量贩式KTV", categoryURLName:"KTV", shopGroupId: 5248996, categoryName: "K歌",comNum:219条评论
 shopId: 5253519, shopName: "MO JUN PANG PANG", shopGlng:"121.3750409", shopGlat: "31.17034", shopPower:35, shopType:15, mainCategoryName:"量贩式KTV", categoryURLName:"KTV", shopGroupId: 5253519, categoryName: "K歌",comNum:16条评论
 shopId: 5268852, shopName: "仙姿KTV", shopGlng:"121.5385294", shopGlat: "31.3193252", shopPower:35, shopType:15, mainCategoryName:"量贩式KTV", categoryURLName:"KTV", shopGroupId: 5268852, categoryName: "K歌",comNum:8条评论
 shopId: 5291624, shopName: "沄鼎汇娱乐会所", shopGlng:"121.54896", shopGlat: "31.2479", shopPower:30, shopType:15, mainCategoryName:"会所型KTV", categoryURLName:"KTV", shopGroupId: 5291624, categoryName: "K歌",comNum:17条评论
 shopId: 5299602, shopName: "好乐迪", shopGlng:"121.403561", shopGlat: "31.21055", shopPower:45, shopType:15, mainCategoryName:"量贩式KTV", categoryURLName:"KTV", shopGroupId: 1794796, categoryName: "K歌",comNum:2990条评论
 shopId: 5335149, shopName: "好乐迪", shopGlng:"121.341635", shopGlat: "31.165064", shopPower:0, shopType:15, mainCategoryName:"量贩式KTV",categoryURLName: NULL,shopGroupId: NULL,categoryName: NULL,comNum:1条评论
 shopId: 53431755, shopName: "凯迪亚", shopGlng:"121.68991", shopGlat: "31.19399", shopPower:35, shopType:15, mainCategoryName:"会所型KTV", categoryURLName:"KTV", shopGroupId: 53431755, categoryName: "K歌",comNum:1条评论
 shopId: 5348760, shopName: "艾尔伦KTV", shopGlng:"121.613053", shopGlat: "31.199893", shopPower:30, shopType:15, mainCategoryName:"会所型KTV", categoryURLName:"KTV", shopGroupId: 5348760, categoryName: "K歌",comNum:18条评论
 shopId: 5361630, shopName: "圣诺KTV", shopGlng:"121.5336", shopGlat: "31.32496", shopPower:35, shopType:15, mainCategoryName:"会所型KTV", categoryURLName:"KTV", shopGroupId: 5361630, categoryName: "K歌",comNum:4条评论
 shopId: 5362762, shopName: "胜成KTV", shopGlng:"121.392892", shopGlat: "31.353449", shopPower:30, shopType:15, mainCategoryName:"会所型KTV", categoryURLName:"KTV", shopGroupId: 5362762, categoryName: "K歌",comNum:8条评论
 shopId: 5382993, shopName: "飞天量贩KTV", shopGlng:"121.31749", shopGlat: "31.13285", shopPower:40, shopType:15, mainCategoryName:"量贩式KTV", categoryURLName:"KTV", shopGroupId: 4512677, categoryName: "K歌",comNum:249条评论
 shopId: 5395331, shopName: "上海滩菁英会夜总会", shopGlng:"121.434253", shopGlat: "31.237535", shopPower:45, shopType:15, mainCategoryName:"会所型KTV", categoryURLName:"KTV", shopGroupId: 5395331, categoryName: "K歌",comNum:63条评论
 shopId: 5397684, shopName: "超级玛丽KTV", shopGlng:"121.577341", shopGlat: "31.116422", shopPower:40, shopType:15, mainCategoryName:"量贩式KTV", categoryURLName:"KTV", shopGroupId: 5397684, categoryName: "K歌",comNum:1136条评论
 shopId: 5416428, shopName: "百乐迪量贩KTV", shopGlng:"121.42239", shopGlat: "31.13911", shopPower:45, shopType:15, mainCategoryName:"量贩式KTV", categoryURLName:"KTV", shopGroupId: 5416428, categoryName: "K歌",comNum:257条评论
 shopId: 5418028, shopName: "自由港量贩式KTV", shopGlng:"121.48022", shopGlat: "31.226614", shopPower:50, shopType:15, mainCategoryName:"量贩式KTV", categoryURLName:"KTV", shopGroupId: 1899244, categoryName: "K歌",comNum:639条评论
 shopId: 5418968, shopName: "唛动歌城", shopGlng:"121.49275", shopGlat: "31.311617", shopPower:35, shopType:15, mainCategoryName:"量贩式KTV", categoryURLName:"KTV", shopGroupId: 5418968, categoryName: "K歌",comNum:421条评论
 shopId: 5421688, shopName: "自由港量贩式KTV", shopGlng:"121.33839", shopGlat: "31.16322", shopPower:45, shopType:15, mainCategoryName:"量贩式KTV", categoryURLName:"KTV", shopGroupId: 1899244, categoryName: "K歌",comNum:30条评论
 shopId: 5431857, shopName: "金色阳光商务会所", shopGlng:"121.396724", shopGlat: "31.181837", shopPower:35, shopType:15, mainCategoryName:"会所型KTV", categoryURLName:"KTV", shopGroupId: 5431857, categoryName: "K歌",comNum:40条评论
 shopId: 5437317, shopName: "欢歌天天量贩式KTV", shopGlng:"121.5956579", shopGlat: "31.04033242", shopPower:40, shopType:15, mainCategoryName:"量贩式KTV", categoryURLName:"KTV", shopGroupId: 5273885, categoryName: "K歌",comNum:28条评论
 shopId: 5451306, shopName: "缤纷歌城", shopGlng:"121.421145", shopGlat: "31.239815", shopPower:30, shopType:15, mainCategoryName:"量贩式KTV", categoryURLName:"KTV", shopGroupId: 2887213, categoryName: "K歌",comNum:113条评论
 shopId: 5460351, shopName: "缤纷歌城", shopGlng:"121.403075", shopGlat: "31.240592", shopPower:35, shopType:15, mainCategoryName:"量贩式KTV", categoryURLName:"KTV", shopGroupId: 2887213, categoryName: "K歌",comNum:50条评论
 shopId: 5488813, shopName: "七堡歌城量贩式KTV", shopGlng:"121.494129", shopGlat: "31.371847", shopPower:45, shopType:15, mainCategoryName:"量贩式KTV", categoryURLName:"KTV", shopGroupId: 5488813, categoryName: "K歌",comNum:496条评论
 shopId: 5491402, shopName: "银乐迪INLOVE KTV", shopGlng:"121.42026", shopGlat: "31.2548", shopPower:45, shopType:15, mainCategoryName:"量贩式KTV", categoryURLName:"KTV", shopGroupId: 5164765, categoryName: "K歌",comNum:1715条评论
 shopId: 5501039, shopName: "欧唛克量贩式KTV", shopGlng:"121.556698", shopGlat: "31.193637", shopPower:50, shopType:15, mainCategoryName:"量贩式KTV", categoryURLName:"KTV", shopGroupId: 5501039, categoryName: "K歌",comNum:1365条评论
 shopId: 5531605, shopName: "缤纷壹号", shopGlng:"121.220391", shopGlat: "31.033609", shopPower:30, shopType:15, mainCategoryName:"会所型KTV", categoryURLName:"KTV", shopGroupId: 5531605, categoryName: "K歌",comNum:5条评论
 shopId: 5535014, shopName: "Enjoy音杰量贩式KTV", shopGlng:"121.4053", shopGlat: "31.23979", shopPower:45, shopType:15, mainCategoryName:"量贩式KTV", categoryURLName:"KTV", shopGroupId: 5535014, categoryName: "K歌",comNum:368条评论
 shopId: 5535019, shopName: "Enjoy音杰量贩式KTV", shopGlng:"121.437304", shopGlat: "31.239478", shopPower:50, shopType:15, mainCategoryName:"量贩式KTV", categoryURLName:"KTV", shopGroupId: 5535014, categoryName: "K歌",comNum:1661条评论
 shopId: 5565839, shopName: "阳光天堂", shopGlng:"121.556051", shopGlat: "31.200664", shopPower:35, shopType:15, mainCategoryName:"会所型KTV", categoryURLName:"KTV", shopGroupId: 5565839, categoryName: "K歌",comNum:10条评论
 shopId: 5580320, shopName: "自由港量贩式KTV", shopGlng:"121.404808", shopGlat: "31.2401", shopPower:45, shopType:15, mainCategoryName:"量贩式KTV", categoryURLName:"KTV", shopGroupId: 1899244, categoryName: "K歌",comNum:1582条评论
 shopId: 5580820, shopName: "新华唐帝国", shopGlng:"121.422671", shopGlat: "31.283734", shopPower:30, shopType:15, mainCategoryName:"会所型KTV", categoryURLName:"KTV", shopGroupId: 5580820, categoryName: "K歌",comNum:23条评论
 shopId: 5590261, shopName: "唛动歌城", shopGlng:"121.026803", shopGlat: "30.892347", shopPower:30, shopType:15, mainCategoryName:"量贩式KTV", categoryURLName:"KTV", shopGroupId: 5418968, categoryName: "K歌",comNum:11条评论
 shopId: 5625863, shopName: "东方魅力国际商务KTV", shopGlng:"121.42913", shopGlat: "31.23295", shopPower:35, shopType:15, mainCategoryName:"会所型KTV", categoryURLName:"KTV", shopGroupId: 5625863, categoryName: "K歌",comNum:52条评论
 shopId: 56631716, shopName: "梦幻之旅主题量贩ktv", shopGlng:"121.53415", shopGlat: "31.20047", shopPower:45, shopType:15, mainCategoryName:"量贩式KTV", categoryURLName:"KTV", shopGroupId: 56631716, categoryName: "K歌",comNum:293条评论
 shopId: 5680054, shopName: "派客量贩KTV", shopGlng:"121.3439203", shopGlat: "30.72953657", shopPower:35, shopType:15, mainCategoryName:"量贩式KTV", categoryURLName:"KTV", shopGroupId: 5680054, categoryName: "K歌",comNum:78条评论
 shopId: 56895474, shopName: "爱琴鸟时尚量贩KTV", shopGlng:"121.456181", shopGlat: "31.039693", shopPower:45, shopType:15, mainCategoryName:"量贩式KTV", categoryURLName:"KTV", shopGroupId: 56895474, categoryName: "K歌",comNum:127条评论
 shopId: 57302213, shopName: "蓝黛公馆", shopGlng:"121.573525", shopGlat: "31.127147", shopPower:35, shopType:15, mainCategoryName:"会所型KTV", categoryURLName:"KTV", shopGroupId: 57302213, categoryName: "K歌",comNum:8条评论
 shopId: 5733976, shopName: "欢乐迪氧吧KTV", shopGlng:"121.41537", shopGlat: "31.237997", shopPower:45, shopType:15, mainCategoryName:"量贩式KTV", categoryURLName:"KTV", shopGroupId: 5733976, categoryName: "K歌",comNum:3032条评论
 shopId: 57405179, shopName: "时代魅力国际会所", shopGlng:"121.35474", shopGlat: "31.14678", shopPower:40, shopType:15, mainCategoryName:"会所型KTV", categoryURLName:"KTV", shopGroupId: 57405179, categoryName: "K歌",comNum:5条评论
 shopId: 57744132, shopName: "新鼎会俱乐部", shopGlng:"121.426835", shopGlat: "31.229999", shopPower:35, shopType:15, mainCategoryName:"会所型KTV", categoryURLName:"KTV", shopGroupId: 57744132, categoryName: "K歌",comNum:35条评论
 shopId: 57854950, shopName: "生宏ktv", shopGlng:"121.22623", shopGlat: "31.24062", shopPower:35, shopType:15, mainCategoryName:"量贩式KTV", categoryURLName:"KTV", shopGroupId: 57854950, categoryName: "K歌",comNum:9条评论
 shopId: 57905419, shopName: "深呼吸量贩式ktv", shopGlng:"121.449221", shopGlat: "30.904337", shopPower:35, shopType:15, mainCategoryName:"量贩式KTV", categoryURLName:"KTV", shopGroupId: 57905419, categoryName: "K歌",comNum:10条评论
 shopId: 58007817, shopName: "Slow Jam Studio 漫玩录音棚", shopGlng:"121.450998", shopGlat: "31.281004", shopPower:40, shopType:15, mainCategoryName:"录音棚", categoryURLName:"KTV", shopGroupId: 19272467, categoryName: "K歌",comNum:11条评论
 shopId: 58074940, shopName: "三品留声音乐工作室", shopGlng:"121.431285", shopGlat: "31.212182", shopPower:40, shopType:15, mainCategoryName:"录音棚", categoryURLName:"KTV", shopGroupId: 58074940, categoryName: "K歌",comNum:9条评论
 shopId: 58075939, shopName: "王府公馆", shopGlng:"121.223807", shopGlat: "30.989195", shopPower:0, shopType:15, mainCategoryName:"会所型KTV", categoryURLName:"KTV", shopGroupId: 58075939, categoryName: "K歌",comNum:0条评论
 shopId: 58191735, shopName: "派客量贩ktv", shopGlng:"121.366857", shopGlat: "31.251556", shopPower:35, shopType:15, mainCategoryName:"量贩式KTV", categoryURLName:"KTV", shopGroupId: 58191735, categoryName: "K歌",comNum:434条评论
 shopId: 58284240, shopName: "大珈瑜樂量贩式ktv", shopGlng:"121.16574", shopGlat: "30.892613", shopPower:35, shopType:15, mainCategoryName:"量贩式KTV", categoryURLName:"KTV", shopGroupId: 58284240, categoryName: "K歌",comNum:31条评论
 shopId: 58359627, shopName: "海上云亭会所", shopGlng:"121.36518", shopGlat: "31.25008", shopPower:35, shopType:15, mainCategoryName:"会所型KTV", categoryURLName:"KTV", shopGroupId: 58359627, categoryName: "K歌",comNum:7条评论
 shopId: 58429494, shopName: "宾利国际KTV", shopGlng:"121.5079", shopGlat: "31.19544", shopPower:40, shopType:15, mainCategoryName:"会所型KTV", categoryURLName:"KTV", shopGroupId: 58429494, categoryName: "K歌",comNum:43条评论
 shopId: 58456754, shopName: "魔都商务ktv娱乐会所", shopGlng:"121.422", shopGlat: "31.21281", shopPower:35, shopType:15, mainCategoryName:"会所型KTV", categoryURLName:"KTV", shopGroupId: 58456754, categoryName: "K歌",comNum:3条评论
 shopId: 58642263, shopName: "K STUDIO", shopGlng:"121.45893", shopGlat: "31.20514", shopPower:35, shopType:15, mainCategoryName:"录音棚", categoryURLName:"KTV", shopGroupId: 58642263, categoryName: "K歌",comNum:2条评论
 shopId: 58939018, shopName: "ShowTeam 录音棚", shopGlng:"121.443178", shopGlat: "31.187527", shopPower:50, shopType:15, mainCategoryName:"录音棚", categoryURLName:"KTV", shopGroupId: 58939018, categoryName: "K歌",comNum:65条评论
 shopId: 59178507, shopName: "宝乐迪KTV", shopGlng:"121.270896", shopGlat: "31.169426", shopPower:35, shopType:15, mainCategoryName:"量贩式KTV", categoryURLName:"KTV", shopGroupId: 59178507, categoryName: "K歌",comNum:52条评论
 shopId: 59255064, shopName: "宝乐迪量贩式KTV", shopGlng:"121.234407", shopGlat: "31.227738", shopPower:35, shopType:15, mainCategoryName:"量贩式KTV", categoryURLName:"KTV", shopGroupId: 59255064, categoryName: "K歌",comNum:55条评论
 shopId: 59357244, shopName: "s流金岁月夜总会", shopGlng:"121.38387", shopGlat: "31.24787", shopPower:30, shopType:15, mainCategoryName:"会所型KTV", categoryURLName:"KTV", shopGroupId: 59357244, categoryName: "K歌",comNum:7条评论
 shopId: 59405488, shopName: "宝鼎皇宫 商务公馆", shopGlng:"121.63082", shopGlat: "31.18512", shopPower:35, shopType:15, mainCategoryName:"KTV", categoryURLName:"KTV", shopGroupId: 59405488, categoryName: "K歌",comNum:6条评论
 shopId: 5956627, shopName: "花鸟风月", shopGlng:"121.5275401", shopGlat: "31.2229693", shopPower:35, shopType:15, mainCategoryName:"会所型KTV", categoryURLName:"KTV", shopGroupId: 5956627, categoryName: "K歌",comNum:14条评论
 shopId: 5982384, shopName: "九歌量贩式KTV", shopGlng:"121.309312", shopGlat: "31.063045", shopPower:35, shopType:15, mainCategoryName:"量贩式KTV", categoryURLName:"KTV", shopGroupId: 5982384, categoryName: "K歌",comNum:34条评论
 shopId: 5997395, shopName: "乐享时尚量贩ktv", shopGlng:"121.417051", shopGlat: "31.35605", shopPower:40, shopType:15, mainCategoryName:"量贩式KTV", categoryURLName:"KTV", shopGroupId: 5997395, categoryName: "K歌",comNum:290条评论
 shopId: 5999552, shopName: "唱九天量贩KTV", shopGlng:"121.27892", shopGlat: "31.380753", shopPower:35, shopType:15, mainCategoryName:"量贩式KTV", categoryURLName:"KTV", shopGroupId: 5999552, categoryName: "K歌",comNum:86条评论
 shopId: 60179170, shopName: "上海之夜KTV", shopGlng:"121.411728", shopGlat: "31.163832", shopPower:40, shopType:15, mainCategoryName:"会所型KTV", categoryURLName:"KTV", shopGroupId: 60179170, categoryName: "K歌",comNum:204条评论
 shopId: 6019874, shopName: "欧麦哒KTV", shopGlng:"121.518223", shopGlat: "31.210769", shopPower:40, shopType:15, mainCategoryName:"量贩式KTV", categoryURLName:"KTV", shopGroupId: 6019874, categoryName: "K歌",comNum:716条评论
 shopId: 6022867, shopName: "咪派KTV", shopGlng:"121.39585", shopGlat: "31.05707", shopPower:40, shopType:15, mainCategoryName:"量贩式KTV", categoryURLName:"KTV", shopGroupId: 6022867, categoryName: "K歌",comNum:151条评论
 shopId: 6033095, shopName: "紫晶娱乐总汇", shopGlng:"121.497204", shopGlat: "31.397267", shopPower:35, shopType:15, mainCategoryName:"会所型KTV", categoryURLName:"KTV", shopGroupId: 6033095, categoryName: "K歌",comNum:6条评论
 shopId: 6058999, shopName: "莱顿KTV", shopGlng:"121.42596", shopGlat: "31.132301", shopPower:35, shopType:15, mainCategoryName:"会所型KTV", categoryURLName:"KTV", shopGroupId: 6058999, categoryName: "K歌",comNum:7条评论
 shopId: 6060528, shopName: "巨麦时尚KTV", shopGlng:"121.488691", shopGlat: "31.382922", shopPower:40, shopType:15, mainCategoryName:"量贩式KTV", categoryURLName:"KTV", shopGroupId: 1893055, categoryName: "K歌",comNum:447条评论
 shopId: 6065947, shopName: "Fish录音棚", shopGlng:"121.510355", shopGlat: "31.229433", shopPower:50, shopType:15, mainCategoryName:"录音棚", categoryURLName:"KTV", shopGroupId: 6065947, categoryName: "K歌",comNum:406条评论
 shopId: 6093258, shopName: "巨麦时尚KTV", shopGlng:"121.445103", shopGlat: "31.32529208", shopPower:35, shopType:15, mainCategoryName:"量贩式KTV", categoryURLName:"KTV", shopGroupId: 1893055, categoryName: "K歌",comNum:1323条评论
 shopId: 6106550, shopName: "盈梦KTV", shopGlng:"121.516441", shopGlat: "31.189012", shopPower:35, shopType:15, mainCategoryName:"量贩式KTV", categoryURLName:"KTV", shopGroupId: 6106550, categoryName: "K歌",comNum:4条评论
 shopId: 6129835, shopName: "鸿韵KTV", shopGlng:"121.424053", shopGlat: "31.123153", shopPower:35, shopType:15, mainCategoryName:"会所型KTV", categoryURLName:"KTV", shopGroupId: 6129835, categoryName: "K歌",comNum:8条评论
 shopId: 6135557, shopName: "龙门阁娱乐会所", shopGlng:"121.439378", shopGlat: "31.367277", shopPower:35, shopType:15, mainCategoryName:"会所型KTV", categoryURLName:"KTV", shopGroupId: 6135557, categoryName: "K歌",comNum:6条评论
 shopId: 6136083, shopName: "宝乐迪量贩KTV", shopGlng:"121.670335", shopGlat: "31.279066", shopPower:40, shopType:15, mainCategoryName:"量贩式KTV", categoryURLName:"KTV", shopGroupId: 6136083, categoryName: "K歌",comNum:92条评论
 shopId: 6149953, shopName: "欢歌天天量贩式KTV", shopGlng:"121.647807", shopGlat: "30.910901", shopPower:35, shopType:15, mainCategoryName:"量贩式KTV", categoryURLName:"KTV", shopGroupId: 5273885, categoryName: "K歌",comNum:44条评论
 shopId: 6158423, shopName: "巨麦量贩式KTV", shopGlng:"121.3084398", shopGlat: "31.06144641", shopPower:35, shopType:15, mainCategoryName:"量贩式KTV", categoryURLName:"KTV", shopGroupId: 6158423, categoryName: "K歌",comNum:26条评论
 shopId: 6160106, shopName: "华夏宾馆KTV", shopGlng:"121.4299496", shopGlat: "31.1676999", shopPower:40, shopType:15, mainCategoryName:"会所型KTV", categoryURLName:"KTV", shopGroupId: 6160106, categoryName: "K歌",comNum:12条评论
 shopId: 6168578, shopName: "银豪KTV", shopGlng:"121.52607", shopGlat: "31.18648", shopPower:35, shopType:15, mainCategoryName:"会所型KTV", categoryURLName:"KTV", shopGroupId: 6168578, categoryName: "K歌",comNum:17条评论
 shopId: 6171719, shopName: "喜玛拉雅之夏音乐嘉年华", shopGlng:"121.562134", shopGlat: "31.210708", shopPower:35, shopType:15, mainCategoryName:"会所型KTV", categoryURLName:"KTV", shopGroupId: 6171719, categoryName: "K歌",comNum:3条评论
 shopId: 6217427, shopName: "音悦汇KTV", shopGlng:"121.39695", shopGlat: "31.21983", shopPower:0, shopType:15, mainCategoryName:"KTV", categoryURLName:"KTV", shopGroupId: 6217427, categoryName: "K歌",comNum:1条评论
 shopId: 6226338, shopName: "掘金歌城", shopGlng:"121.257652", shopGlat: "31.017324", shopPower:40, shopType:15, mainCategoryName:"量贩式KTV", categoryURLName:"KTV", shopGroupId: 6226338, categoryName: "K歌",comNum:330条评论
 shopId: 6230311, shopName: "欢歌天天量贩式KTV", shopGlng:"121.62587", shopGlat: "31.325565", shopPower:35, shopType:15, mainCategoryName:"量贩式KTV", categoryURLName:"KTV", shopGroupId: 5273885, categoryName: "K歌",comNum:158条评论
 shopId: 6252839, shopName: "纯K", shopGlng:"121.51889", shopGlat: "31.30162", shopPower:50, shopType:15, mainCategoryName:"量贩式KTV", categoryURLName:"KTV", shopGroupId: 4673156, categoryName: "K歌",comNum:3212条评论
 shopId: 6254205, shopName: "24K量贩歌城", shopGlng:"121.912271", shopGlat: "30.879833", shopPower:45, shopType:15, mainCategoryName:"量贩式KTV", categoryURLName:"KTV", shopGroupId: 6254205, categoryName: "K歌",comNum:1857条评论
 shopId: 63182041, shopName: "银乐迪INLOVE KTV", shopGlng:"121.48509", shopGlat: "31.39933", shopPower:50, shopType:15, mainCategoryName:"量贩式KTV", categoryURLName:"KTV", shopGroupId: 5164765, categoryName: "K歌",comNum:260条评论
 shopId: 6341209, shopName: "唛动歌城", shopGlng:"121.366137", shopGlat: "31.107661", shopPower:35, shopType:15, mainCategoryName:"量贩式KTV", categoryURLName:"KTV", shopGroupId: 5418968, categoryName: "K歌",comNum:79条评论
 shopId: 6341226, shopName: "唛动歌城", shopGlng:"121.503589", shopGlat: "30.992107", shopPower:40, shopType:15, mainCategoryName:"量贩式KTV", categoryURLName:"KTV", shopGroupId: 5418968, categoryName: "K歌",comNum:9条评论
 shopId: 6344387, shopName: "好乐迪", shopGlng:"121.43716", shopGlat: "31.19703", shopPower:50, shopType:15, mainCategoryName:"量贩式KTV", categoryURLName:"KTV", shopGroupId: 1794796, categoryName: "K歌",comNum:4093条评论
 shopId: 6367322, shopName: "欢歌量贩式KTV", shopGlng:"121.530974", shopGlat: "31.167107", shopPower:35, shopType:15, mainCategoryName:"量贩式KTV", categoryURLName:"KTV", shopGroupId: 5273885, categoryName: "K歌",comNum:125条评论
 shopId: 6439910, shopName: "糖果会", shopGlng:"121.257681", shopGlat: "31.368879", shopPower:35, shopType:15, mainCategoryName:"会所型KTV", categoryURLName:"KTV", shopGroupId: 6439910, categoryName: "K歌",comNum:8条评论
 shopId: 6440661, shopName: "巨麦时尚KTV", shopGlng:"121.52183", shopGlat: "31.316055", shopPower:45, shopType:15, mainCategoryName:"量贩式KTV", categoryURLName:"KTV", shopGroupId: 1893055,categoryName: NULL,comNum:600条评论
 shopId: 6441944, shopName: "炫音KTV", shopGlng:"121.4265994", shopGlat: "31.41705878", shopPower:40, shopType:15, mainCategoryName:"量贩式KTV", categoryURLName:"KTV", shopGroupId: 5321182, categoryName: "K歌",comNum:246条评论
 shopId: 6446275, shopName: "欣尚歌城量贩KTV", shopGlng:"121.314400999803", shopGlat: "31.0126869999715", shopPower:35, shopType:15, mainCategoryName:"量贩式KTV", categoryURLName:"KTV", shopGroupId: 5515139, categoryName: "K歌",comNum:23条评论
 shopId: 6451930, shopName: "男人帮", shopGlng:"121.692422", shopGlat: "31.180068", shopPower:35, shopType:15, mainCategoryName:"会所型KTV", categoryURLName:"KTV", shopGroupId: 6451930, categoryName: "K歌",comNum:9条评论
 shopId: 65538625, shopName: "佘山歌城", shopGlng:"121.18512", shopGlat: "31.09983", shopPower:40, shopType:15, mainCategoryName:"量贩式KTV", categoryURLName:"KTV", shopGroupId: 65538625, categoryName: "K歌",comNum:47条评论
 shopId: 65862857, shopName: "梦之声量贩式ktv", shopGlng:"121.41026", shopGlat: "31.01359", shopPower:50, shopType:15, mainCategoryName:"量贩式KTV", categoryURLName:"KTV", shopGroupId: 65862857, categoryName: "K歌",comNum:55条评论
 shopId: 65874182, shopName: "好乐迪", shopGlng:"121.51295", shopGlat: "31.300859", shopPower:50, shopType:15, mainCategoryName:"量贩式KTV", categoryURLName:"KTV", shopGroupId: 1794796, categoryName: "K歌",comNum:560条评论
 shopId: 65969449, shopName: "七星皇宫商务ktv夜总会", shopGlng:"121.44268", shopGlat: "31.185824", shopPower:30, shopType:15, mainCategoryName:"会所型KTV", categoryURLName:"KTV", shopGroupId: 65969449, categoryName: "K歌",comNum:5条评论
 shopId: 66222067, shopName: "音乐烩", shopGlng:"121.39599037242398", shopGlat: "31.1038187259485", shopPower:45, shopType:15, mainCategoryName:"会所型KTV", categoryURLName:"KTV", shopGroupId: 66222067, categoryName: "K歌",comNum:25条评论
 shopId: 66677562, shopName: "上海1夜", shopGlng:"121.54284960152755", shopGlat: "31.2757061514507", shopPower:45, shopType:15, mainCategoryName:"量贩式KTV", categoryURLName:"KTV", shopGroupId: 66677562, categoryName: "K歌",comNum:350条评论
 shopId: 66770706, shopName: "万江汇ktv娱乐会所", shopGlng:"121.57985", shopGlat: "31.345705", shopPower:30, shopType:15, mainCategoryName:"会所型KTV", categoryURLName:"KTV", shopGroupId: 66770706, categoryName: "K歌",comNum:4条评论
 shopId: 66818298, shopName: "烟雨江南KTV夜总会", shopGlng:"121.469949", shopGlat: "31.204149", shopPower:30, shopType:15, mainCategoryName:"会所型KTV", categoryURLName:"KTV", shopGroupId: 66818298, categoryName: "K歌",comNum:3条评论
 shopId: 66897439, shopName: "上海纯k量贩式ktv", shopGlng:"121.451551", shopGlat: "30.904954", shopPower:40, shopType:15, mainCategoryName:"量贩式KTV", categoryURLName:"KTV", shopGroupId: 66897439, categoryName: "K歌",comNum:12条评论
 shopId: 67038553, shopName: "川沙九号公馆国际会所", shopGlng:"121.712241", shopGlat: "31.19168", shopPower:30, shopType:15, mainCategoryName:"会所型KTV", categoryURLName:"KTV", shopGroupId: 67038553, categoryName: "K歌",comNum:3条评论
 shopId: 6703929, shopName: "巨麦时尚KTV", shopGlng:"121.500674", shopGlat: "31.380376", shopPower:45, shopType:15, mainCategoryName:"量贩式KTV", categoryURLName:"KTV", shopGroupId: 1893055, categoryName: "K歌",comNum:472条评论
 shopId: 67166705, shopName: "皇豪国际ktv", shopGlng:"121.55049", shopGlat: "31.25003", shopPower:35, shopType:15, mainCategoryName:"会所型KTV", categoryURLName:"KTV", shopGroupId: 67166705, categoryName: "K歌",comNum:15条评论
 shopId: 67187251, shopName: "塞得娜量贩式KTV", shopGlng:"121.169344", shopGlat: "30.885933", shopPower:35, shopType:15, mainCategoryName:"量贩式KTV", categoryURLName:"KTV", shopGroupId: 67187251, categoryName: "K歌",comNum:2条评论
 shopId: 67238568, shopName: "火龙果纯k", shopGlng:"121.367903", shopGlat: "31.213954", shopPower:45, shopType:15, mainCategoryName:"量贩式KTV", categoryURLName:"KTV", shopGroupId: 67238568, categoryName: "K歌",comNum:108条评论
 shopId: 67314718, shopName: "豪情会所", shopGlng:"121.49088", shopGlat: "31.280314", shopPower:30, shopType:15, mainCategoryName:"KTV", categoryURLName:"KTV", shopGroupId: 67314718, categoryName: "K歌",comNum:30条评论
 shopId: 67369126, shopName: "小城故事ktv", shopGlng:"121.343311", shopGlat: "30.708774", shopPower:35, shopType:15, mainCategoryName:"量贩式KTV", categoryURLName:"KTV", shopGroupId: 67369126, categoryName: "K歌",comNum:2条评论
 shopId: 67375371, shopName: "Queen Club", shopGlng:"121.40175", shopGlat: "31.211719", shopPower:35, shopType:15, mainCategoryName:"KTV", categoryURLName:"KTV", shopGroupId: 67375371, categoryName: "K歌",comNum:6条评论
 shopId: 67382436, shopName: "金门国际俱乐部", shopGlng:"121.40448", shopGlat: "31.186169", shopPower:40, shopType:15, mainCategoryName:"会所型KTV", categoryURLName:"KTV", shopGroupId: 67382436, categoryName: "K歌",comNum:13条评论
 shopId: 67434317, shopName: "银都国际", shopGlng:"121.374997", shopGlat: "31.191126", shopPower:35, shopType:15, mainCategoryName:"会所型KTV", categoryURLName:"KTV", shopGroupId: 67434317, categoryName: "K歌",comNum:2条评论
 shopId: 67518213, shopName: "Media Sky", shopGlng:"121.446485", shopGlat: "31.241897", shopPower:0, shopType:15, mainCategoryName:"录音棚", categoryURLName:"KTV", shopGroupId: 67518213, categoryName: "K歌",comNum:0条评论
 shopId: 67648365, shopName: "乐耳录音棚", shopGlng:"121.358555", shopGlat: "31.099403", shopPower:50, shopType:15, mainCategoryName:"录音棚", categoryURLName:"KTV", shopGroupId: 67648365, categoryName: "K歌",comNum:65条评论
 shopId: 67670915, shopName: "金山纯k", shopGlng:"121.317558", shopGlat: "30.874573", shopPower:35, shopType:15, mainCategoryName:"量贩式KTV", categoryURLName:"KTV", shopGroupId: 67670915, categoryName: "K歌",comNum:1条评论
 shopId: 67702611, shopName: "新丽汇商务ktv夜总会", shopGlng:"121.376806", shopGlat: "31.19166", shopPower:30, shopType:15, mainCategoryName:"会所型KTV", categoryURLName:"KTV", shopGroupId: 67702611, categoryName: "K歌",comNum:3条评论
 shopId: 67752799, shopName: "518夜总会ktv", shopGlng:"121.415018", shopGlat: "31.119067", shopPower:35, shopType:15, mainCategoryName:"会所型KTV", categoryURLName:"KTV", shopGroupId: 67752799, categoryName: "K歌",comNum:5条评论
 shopId: 67772947, shopName: "银乐迪INLOVEKTV", shopGlng:"121.355209", shopGlat: "31.157075", shopPower:50, shopType:15, mainCategoryName:"量贩式KTV", categoryURLName:"KTV", shopGroupId: 67772947, categoryName: "K歌",comNum:458条评论
 shopId: 67861978, shopName: "欢歌天天量贩ktv", shopGlng:"121.73873", shopGlat: "30.89478", shopPower:30, shopType:15, mainCategoryName:"量贩式KTV", categoryURLName:"KTV", shopGroupId: 67861978, categoryName: "K歌",comNum:8条评论
 shopId: 67980289, shopName: "深呼吸量贩式ktv", shopGlng:"121.58333", shopGlat: "30.923629", shopPower:35, shopType:15, mainCategoryName:"量贩式KTV", categoryURLName:"KTV", shopGroupId: 67980289, categoryName: "K歌",comNum:5条评论
 shopId: 68003191, shopName: "维也纳主题量贩歌城ktv", shopGlng:"121.33933", shopGlat: "31.260659", shopPower:50, shopType:15, mainCategoryName:"量贩式KTV", categoryURLName:"KTV", shopGroupId: 68003191, categoryName: "K歌",comNum:79条评论
 shopId: 68022305, shopName: "都唛量贩式ktv", shopGlng:"121.372104", shopGlat: "30.995678", shopPower:35, shopType:15, mainCategoryName:"量贩式KTV", categoryURLName:"KTV", shopGroupId: 68022305, categoryName: "K歌",comNum:6条评论
 shopId: 68024663, shopName: "乐潮ktv夜总会", shopGlng:"121.361219", shopGlat: "31.13977", shopPower:35, shopType:15, mainCategoryName:"会所型KTV", categoryURLName:"KTV", shopGroupId: 68024663, categoryName: "K歌",comNum:8条评论
 shopId: 68112670, shopName: "水晶皇宫ktv夜总会", shopGlng:"121.456413", shopGlat: "31.215107", shopPower:35, shopType:15, mainCategoryName:"会所型KTV", categoryURLName:"KTV", shopGroupId: 68112670, categoryName: "K歌",comNum:4条评论
 shopId: 68201161, shopName: "歌城新世界", shopGlng:"121.446038", shopGlat: "31.220346", shopPower:40, shopType:15, mainCategoryName:"量贩式KTV", categoryURLName:"KTV", shopGroupId: 68201161, categoryName: "K歌",comNum:6条评论
 shopId: 68226372, shopName: "非凡音乐工作室", shopGlng:"121.459577", shopGlat: "31.19271", shopPower:35, shopType:15, mainCategoryName:"录音棚", categoryURLName:"KTV", shopGroupId: 68226372, categoryName: "K歌",comNum:2条评论
 shopId: 6827692, shopName: "优麦克主题KTV", shopGlng:"121.2301498", shopGlat: "31.05234428", shopPower:40, shopType:15, mainCategoryName:"量贩式KTV", categoryURLName:"KTV", shopGroupId: 6827692, categoryName: "K歌",comNum:621条评论
 shopId: 6847467, shopName: "新濠会", shopGlng:"121.698468", shopGlat: "31.183004", shopPower:35, shopType:15, mainCategoryName:"会所型KTV", categoryURLName:"KTV", shopGroupId: 6847467, categoryName: "K歌",comNum:3条评论
 shopId: 68527865, shopName: "罗商星辰量贩ktv", shopGlng:"121.34364", shopGlat: "31.411959", shopPower:40, shopType:15, mainCategoryName:"量贩式KTV", categoryURLName:"KTV", shopGroupId: 68527865, categoryName: "K歌",comNum:96条评论
 shopId: 6853230, shopName: "宇乐迪量贩式KTV", shopGlng:"121.449373", shopGlat: "30.904152", shopPower:35, shopType:15, mainCategoryName:"量贩式KTV", categoryURLName:"KTV", shopGroupId: 6853230, categoryName: "K歌",comNum:93条评论
 shopId: 68938257, shopName: "皇圣国际商务ktv", shopGlng:"121.422568", shopGlat: "31.213356", shopPower:35, shopType:15, mainCategoryName:"会所型KTV", categoryURLName:"KTV", shopGroupId: 68938257, categoryName: "K歌",comNum:4条评论
 shopId: 68990229, shopName: "大话嘻游量贩ktv", shopGlng:"121.16469", shopGlat: "31.2877", shopPower:40, shopType:15, mainCategoryName:"量贩式KTV", categoryURLName:"KTV", shopGroupId: 68990229, categoryName: "K歌",comNum:79条评论
 shopId: 69259490, shopName: "欣尚歌城量贩ktv", shopGlng:"121.408618", shopGlat: "31.283299", shopPower:45, shopType:15, mainCategoryName:"量贩式KTV", categoryURLName:"KTV", shopGroupId: 69259490, categoryName: "K歌",comNum:67条评论
 shopId: 69507206, shopName: "唱嗨纯k量贩式ktv", shopGlng:"121.260717", shopGlat: "31.345172", shopPower:40, shopType:15, mainCategoryName:"量贩式KTV", categoryURLName:"KTV", shopGroupId: 69507206, categoryName: "K歌",comNum:83条评论
 shopId: 69539165, shopName: "百乐门娱乐ktv", shopGlng:"121.390951", shopGlat: "31.208387", shopPower:35, shopType:15, mainCategoryName:"会所型KTV", categoryURLName:"KTV", shopGroupId: 69539165, categoryName: "K歌",comNum:2条评论
 shopId: 69673244, shopName: "V-SHOW上海概念店", shopGlng:"121.48081", shopGlat: "31.225661", shopPower:50, shopType:15, mainCategoryName:"量贩式KTV", categoryURLName:"KTV", shopGroupId: 69673244, categoryName: "K歌",comNum:132条评论
 shopId: 69804631, shopName: "宏伊公馆", shopGlng:"121.48352", shopGlat: "31.237533", shopPower:0, shopType:15, mainCategoryName:"会所型KTV", categoryURLName:"KTV", shopGroupId: 69804631, categoryName: "K歌",comNum:0条评论
 shopId: 69811080, shopName: "金殿ktv", shopGlng:"121.39095141173203", shopGlat: "31.20838703438107", shopPower:0, shopType:15, mainCategoryName:"会所型KTV", categoryURLName:"KTV", shopGroupId: 69811080, categoryName: "K歌",comNum:0条评论
 shopId: 69832344, shopName: "大富贵ktv", shopGlng:"121.39899081530226", shopGlat: "31.20095818306523", shopPower:0, shopType:15, mainCategoryName:"会所型KTV", categoryURLName:"KTV", shopGroupId: 69832344, categoryName: "K歌",comNum:0条评论
 shopId: 69941148, shopName: "唛动纯k量贩ktv", shopGlng:"121.421451", shopGlat: "31.124825", shopPower:40, shopType:15, mainCategoryName:"量贩式KTV", categoryURLName:"KTV", shopGroupId: 69941148, categoryName: "K歌",comNum:23条评论
 shopId: 70126763, shopName: "东方佳人娱乐会所", shopGlng:"121.217156", shopGlat: "31.267689", shopPower:0, shopType:15, mainCategoryName:"会所型KTV", categoryURLName:"KTV", shopGroupId: 70126763, categoryName: "K歌",comNum:0条评论
 shopId: 70190385, shopName: "玖久唱吧", shopGlng:"121.472613", shopGlat: "31.303688", shopPower:0, shopType:15, mainCategoryName:"量贩式KTV", categoryURLName:"KTV", shopGroupId: 70190385, categoryName: "K歌",comNum:0条评论
 shopId: 70325764, shopName: "香奈儿ktv", shopGlng:"121.059794", shopGlat: "31.109907", shopPower:35, shopType:15, mainCategoryName:"量贩式KTV", categoryURLName:"KTV", shopGroupId: 70325764, categoryName: "K歌",comNum:1条评论
 shopId: 70389118, shopName: "紫鑫ktv", shopGlng:"121.34640544652939", shopGlat: "31.258019406889737", shopPower:0, shopType:15, mainCategoryName:"量贩式KTV", categoryURLName:"KTV", shopGroupId: 70389118, categoryName: "K歌",comNum:0条评论
 shopId: 70410657, shopName: "时尚丽人", shopGlng:"121.48196563124657", shopGlat: "31.24517853137138", shopPower:0, shopType:15, mainCategoryName:"录音棚", categoryURLName:"KTV", shopGroupId: 70410657, categoryName: "K歌",comNum:0条评论
 shopId: 72366291, shopName: "飞歌", shopGlng:"121.34488623295402", shopGlat: "31.140030418057897", shopPower:0, shopType:15, mainCategoryName:"量贩式KTV", categoryURLName:"KTV", shopGroupId: 72366291, categoryName: "K歌",comNum:0条评论
 shopId: 72445878, shopName: "帝五季", shopGlng:"121.586765", shopGlat: "31.055065", shopPower:35, shopType:15, mainCategoryName:"量贩式KTV", categoryURLName:"KTV", shopGroupId: 72445878, categoryName: "K歌",comNum:3条评论
 shopId: 72453413, shopName: "GALAXY MUSIC", shopGlng:"121.45560997759762", shopGlat: "31.199588903092323", shopPower:0, shopType:15, mainCategoryName:"录音棚", categoryURLName:"KTV", shopGroupId: 72453413, categoryName: "K歌",comNum:0条评论
 shopId: 75119045, shopName: "金座流体设备", shopGlng:"121.314392", shopGlat: "30.835953", shopPower:0, shopType:15, mainCategoryName:"会所型KTV", categoryURLName:"KTV", shopGroupId: 75119045, categoryName: "K歌",comNum:0条评论
 shopId: 75185087, shopName: "x纯k主题歌城", shopGlng:"121.48533", shopGlat: "30.916673", shopPower:50, shopType:15, mainCategoryName:"量贩式KTV", categoryURLName:"KTV", shopGroupId: 75185087, categoryName: "K歌",comNum:42条评论
 shopId: 76665456, shopName: "歌帝", shopGlng:"121.228182", shopGlat: "31.157651", shopPower:0, shopType:15, mainCategoryName:"KTV", categoryURLName:"KTV", shopGroupId: 76665456, categoryName: "K歌",comNum:0条评论
 shopId: 76873307, shopName: "十月歌城", shopGlng:"121.473888", shopGlat: "31.234909", shopPower:35, shopType:15, mainCategoryName:"量贩式KTV", categoryURLName:"KTV", shopGroupId: 76873307, categoryName: "K歌",comNum:0条评论
 shopId: 76903705, shopName: "滨江文化娱乐会所", shopGlng:"121.472825", shopGlat: "31.192724", shopPower:40, shopType:15, mainCategoryName:"会所型KTV", categoryURLName:"KTV", shopGroupId: 76903705, categoryName: "K歌",comNum:4条评论
 shopId: 76944327, shopName: "君满堂KTV夜总会", shopGlng:"121.420721", shopGlat: "31.234398", shopPower:35, shopType:15, mainCategoryName:"会所型KTV", categoryURLName:"KTV", shopGroupId: 76944327, categoryName: "K歌",comNum:18条评论
 shopId: 77045863, shopName: "星家乐时尚量贩ktv", shopGlng:"121.425949", shopGlat: "31.331867", shopPower:45, shopType:15, mainCategoryName:"量贩式KTV", categoryURLName:"KTV", shopGroupId: 77045863, categoryName: "K歌",comNum:171条评论
 shopId: 77283418, shopName: "曼透录音棚", shopGlng:"121.524607", shopGlat: "31.293962", shopPower:45, shopType:15, mainCategoryName:"录音棚", categoryURLName:"KTV", shopGroupId: 77283418, categoryName: "K歌",comNum:12条评论
 shopId: 77391138, shopName: "鹰鹰娱乐会所", shopGlng:"121.141053", shopGlat: "31.030428", shopPower:0, shopType:15, mainCategoryName:"会所型KTV", categoryURLName:"KTV", shopGroupId: 77391138, categoryName: "K歌",comNum:0条评论
 shopId: 77406735, shopName: "复旦上科多媒体有限公司", shopGlng:"121.36090010404587", shopGlat: "31.108210469402547", shopPower:0, shopType:15, mainCategoryName:"录音棚", categoryURLName:"KTV", shopGroupId: 77406735, categoryName: "K歌",comNum:0条评论
 shopId: 77482889, shopName: "巴黎纯k", shopGlng:"121.434022", shopGlat: "30.961716", shopPower:40, shopType:15, mainCategoryName:"量贩式KTV", categoryURLName:"KTV", shopGroupId: 77482889, categoryName: "K歌",comNum:2条评论
 shopId: 77492406, shopName: "金泽录音棚", shopGlng:"120.91543064453128", shopGlat: "31.03178785879739", shopPower:0, shopType:15, mainCategoryName:"录音棚", categoryURLName:"KTV", shopGroupId: 77492406, categoryName: "K歌",comNum:0条评论
 shopId: 79255480, shopName: "51区嘻哈厂牌", shopGlng:"121.4304952738189", shopGlat: "31.367734786100836", shopPower:40, shopType:15, mainCategoryName:"录音棚", categoryURLName:"KTV", shopGroupId: 79255480, categoryName: "K歌",comNum:10条评论
 shopId: 79265105, shopName: "今夜金歌量贩ktv", shopGlng:"121.494618", shopGlat: "30.960732", shopPower:35, shopType:15, mainCategoryName:"量贩式KTV", categoryURLName:"KTV", shopGroupId: 79265105, categoryName: "K歌",comNum:1条评论
 shopId: 79439436, shopName: "咪哒minik", shopGlng:"121.312959", shopGlat: "31.19002", shopPower:35, shopType:15, mainCategoryName:"KTV", categoryURLName:"KTV", shopGroupId: 79439436, categoryName: "K歌",comNum:4条评论
 shopId: 79618634, shopName: "友唱M bar", shopGlng:"121.489879", shopGlat: "31.2223", shopPower:40, shopType:15, mainCategoryName:"KTV", categoryURLName:"KTV", shopGroupId: 79618634, categoryName: "K歌",comNum:5条评论
 shopId: 79682435, shopName: "东方壹号公馆KTV夜总会", shopGlng:"121.463803", shopGlat: "31.271391", shopPower:40, shopType:15, mainCategoryName:"会所型KTV", categoryURLName:"KTV", shopGroupId: 79682435, categoryName: "K歌",comNum:3条评论
 shopId: 79717712, shopName: "友唱M bar", shopGlng:"121.47167982863644", shopGlat: "31.24283029410391", shopPower:35, shopType:15, mainCategoryName:"KTV", categoryURLName:"KTV", shopGroupId: 79717712, categoryName: "K歌",comNum:9条评论
 shopId: 8015361, shopName: "大别商务会所", shopGlng:"121.364889999816", shopGlat: "31.1823899999582", shopPower:35, shopType:15, mainCategoryName:"会所型KTV", categoryURLName:"KTV", shopGroupId: 8015361, categoryName: "K歌",comNum:2条评论
 shopId: 8023999, shopName: "银乐迪INLOVE KTV", shopGlng:"121.49103", shopGlat: "31.18734", shopPower:50, shopType:15, mainCategoryName:"量贩式KTV", categoryURLName:"KTV", shopGroupId: 5164765, categoryName: "K歌",comNum:1671条评论
 shopId: 8039690, shopName: "歌神量贩式ktv", shopGlng:"121.512849", shopGlat: "31.141339", shopPower:40, shopType:15, mainCategoryName:"量贩式KTV", categoryURLName:"KTV", shopGroupId: 8039690, categoryName: "K歌",comNum:1069条评论
 shopId: 8039816, shopName: "利玛歌城量贩式KTV", shopGlng:"121.158155", shopGlat: "31.291023", shopPower:40, shopType:15, mainCategoryName:"量贩式KTV", categoryURLName:"KTV", shopGroupId: 8039816, categoryName: "K歌",comNum:102条评论
 shopId: 80537505, shopName: "咪哒minik", shopGlng:"121.5180312873961", shopGlat: "31.22917885876634", shopPower:35, shopType:15, mainCategoryName:"录音棚", categoryURLName:"KTV", shopGroupId: 80537505, categoryName: "K歌",comNum:1条评论
 shopId: 8063409, shopName: "上海歌城", shopGlng:"121.49094", shopGlat: "31.173675", shopPower:40, shopType:15, mainCategoryName:"量贩式KTV", categoryURLName:"KTV", shopGroupId: 1794790, categoryName: "K歌",comNum:1838条评论
 shopId: 8069412, shopName: "银尊夜总会", shopGlng:"121.513807", shopGlat: "31.172024", shopPower:40, shopType:15, mainCategoryName:"会所型KTV", categoryURLName:"KTV", shopGroupId: 8069412, categoryName: "K歌",comNum:46条评论
 shopId: 8072990, shopName: "高点娱乐城", shopGlng:"121.479664", shopGlat: "31.272309", shopPower:40, shopType:15, mainCategoryName:"会所型KTV", categoryURLName:"KTV", shopGroupId: 8072990, categoryName: "K歌",comNum:105条评论
 shopId: 8073573, shopName: "鐜煌公馆KTV", shopGlng:"121.308766", shopGlat: "31.018402", shopPower:35, shopType:15, mainCategoryName:"会所型KTV", categoryURLName:"KTV", shopGroupId: 8073573, categoryName: "K歌",comNum:7条评论
 shopId: 81002869, shopName: "咪哒", shopGlng:"121.41624986554991", shopGlat: "31.218520103013084", shopPower:35, shopType:15, mainCategoryName:"录音棚", categoryURLName:"KTV", shopGroupId: 81002869, categoryName: "K歌",comNum:15条评论
 shopId: 82651633, shopName: "蕊梦ktv娱乐会所", shopGlng:"121.364459", shopGlat: "31.181529", shopPower:35, shopType:15, mainCategoryName:"KTV", categoryURLName:"KTV", shopGroupId: 82651633, categoryName: "K歌",comNum:1条评论
 shopId: 8311765, shopName: "随意门量贩式KTV", shopGlng:"121.259494", shopGlat: "31.367828", shopPower:40, shopType:15, mainCategoryName:"量贩式KTV", categoryURLName:"KTV", shopGroupId: 8311765, categoryName: "K歌",comNum:230条评论
 shopId: 83538373, shopName: "伯爵会所KTV夜总会", shopGlng:"121.308589", shopGlat: "31.140734", shopPower:35, shopType:15, mainCategoryName:"会所型KTV", categoryURLName:"KTV", shopGroupId: 83538373, categoryName: "K歌",comNum:1条评论
 shopId: 83547672, shopName: "明申商务ktv夜总会", shopGlng:"121.40846613096525", shopGlat: "31.164345693774052", shopPower:0, shopType:15, mainCategoryName:"会所型KTV", categoryURLName:"KTV", shopGroupId: 83547672, categoryName: "K歌",comNum:0条评论
 shopId: 83616221, shopName: "京代国际KTV夜总会", shopGlng:"121.376835", shopGlat: "31.123052", shopPower:40, shopType:15, mainCategoryName:"会所型KTV", categoryURLName:"KTV", shopGroupId: 83616221, categoryName: "K歌",comNum:2条评论
 shopId: 8426501, shopName: "上海秀麦量贩KTV", shopGlng:"121.61304", shopGlat: "31.202477", shopPower:45, shopType:15, mainCategoryName:"量贩式KTV", categoryURLName:"KTV", shopGroupId: 4187918, categoryName: "K歌",comNum:343条评论
 shopId: 8530356, shopName: "王子公主奇遇记主题KTV", shopGlng:"121.41062", shopGlat: "31.01172", shopPower:50, shopType:15, mainCategoryName:"量贩式KTV", categoryURLName:"KTV", shopGroupId: 8530356, categoryName: "K歌",comNum:1772条评论
 shopId: 8671723, shopName: "上海歌城", shopGlng:"121.61137", shopGlat: "31.29375", shopPower:45, shopType:15, mainCategoryName:"量贩式KTV", categoryURLName:"KTV", shopGroupId: 1794790, categoryName: "K歌",comNum:1302条评论
 shopId: 8672552, shopName: "温莎公馆", shopGlng:"121.523191", shopGlat: "31.229041", shopPower:40, shopType:15, mainCategoryName:"会所型KTV", categoryURLName:"KTV", shopGroupId: 8672552, categoryName: "K歌",comNum:14条评论
 shopId: 8674512, shopName: "K歌达人量贩式KTV", shopGlng:"121.610348", shopGlat: "31.284204", shopPower:50, shopType:15, mainCategoryName:"量贩式KTV", categoryURLName:"KTV", shopGroupId: 8674512, categoryName: "K歌",comNum:1146条评论
