 shopId: 10004616, shopName: "艾米美甲",2017/6/9shopGlng:121.528016,shopGlat:31.220597,shopPower: NULL,shopType: NULL,mainCategoryName: NULL,categoryURLName: NULL,shopGroupId: NULL,categoryName: NULL,comNum:54条评论
 shopId: 10005550, shopName: "英伦玫瑰",shopGlng:121.654844,shopGlat:31.270015,shopPower: NULL,shopType: NULL,mainCategoryName: NULL,categoryURLName: NULL,shopGroupId: NULL,categoryName: NULL,comNum:消费：-
 shopId: 10007595, shopName: "雅业",shopGlng:121.45737,shopGlat:31.311367,shopPower: NULL,shopType: NULL,mainCategoryName: NULL,categoryURLName: NULL,shopGroupId: NULL,categoryName: NULL,comNum:19条评论
 shopId: 10008176, shopName: "Miss Shine 指甲造型",shopGlng:121.402047,shopGlat:31.233744,shopPower: NULL,shopType: NULL,mainCategoryName: NULL,categoryURLName: NULL,shopGroupId: NULL,categoryName: NULL,comNum:96条评论
 shopId: 10009305, shopName: "丝域养发馆",shopGlng:121.3993907,shopGlat:31.19517852,shopPower: NULL,shopType: NULL,mainCategoryName: NULL,categoryURLName: NULL,shopGroupId: NULL,categoryName: NULL,comNum:25条评论
 shopId: 10010491, shopName: "老艺人纹身",shopGlng:121.233616,shopGlat:31.00605,shopPower: NULL,shopType: NULL,mainCategoryName: NULL,categoryURLName: NULL,shopGroupId: NULL,categoryName: NULL,comNum:62条评论
 shopId: 10011209, shopName: "法阑.拉蒂美容养生SPA馆",shopGlng:121.320928,shopGlat:31.295538,shopPower: NULL,shopType: NULL,mainCategoryName: NULL,categoryURLName: NULL,shopGroupId: NULL,categoryName: NULL,comNum:17条评论
 shopId: 10018391, shopName: "龙兴理发店",shopGlng:121.446722000138,shopGlat:31.3218950000034,shopPower: NULL,shopType: NULL,mainCategoryName: NULL,categoryURLName: NULL,shopGroupId: NULL,categoryName: NULL,comNum:1条评论
 shopId: 10020899, shopName: "自然美",shopGlng:121.457128,shopGlat:31.322808,shopPower: NULL,shopType: NULL,mainCategoryName: NULL,categoryURLName: NULL,shopGroupId: NULL,categoryName: NULL,comNum:9条评论
 shopId: 10021695, shopName: "安奇尔形象设计",shopGlng:121.441168,shopGlat:31.320959,shopPower: NULL,shopType: NULL,mainCategoryName: NULL,categoryURLName: NULL,shopGroupId: NULL,categoryName: NULL,comNum:4条评论
 shopId: 10023056, shopName: "BOMB COSMETICS",shopGlng:121.471422,shopGlat:31.20178364,shopPower: NULL,shopType: NULL,mainCategoryName: NULL,categoryURLName: NULL,shopGroupId: NULL,categoryName: NULL,comNum:2条评论
 shopId: 10023410, shopName: "BK2 hair style",shopGlng:121.46535970052,shopGlat:31.218187391493,shopPower: NULL,shopType: NULL,mainCategoryName: NULL,categoryURLName: NULL,shopGroupId: NULL,categoryName: NULL,comNum:53条评论
 shopId: 10324749, shopName: "Moko Nail&Eyelash美空日式美睫美甲半永久",shopGlng:121.51837,shopGlat:31.228988,shopPower: NULL,shopType: NULL,mainCategoryName: NULL,categoryURLName: NULL,shopGroupId: NULL,categoryName: NULL,comNum:199条评论
 shopId: 10327996, shopName: "欧若拉造型沙龙",shopGlng:121.4504668,shopGlat:31.32925455,shopPower: NULL,shopType: NULL,mainCategoryName: NULL,categoryURLName: NULL,shopGroupId: NULL,categoryName: NULL,comNum:175条评论
 shopId: 10329277, shopName: "V.ting美甲美业私人订制",shopGlng:121.429718,shopGlat:31.284611,shopPower: NULL,shopType: NULL,mainCategoryName: NULL,categoryURLName: NULL,shopGroupId: NULL,categoryName: NULL,comNum:16条评论
 shopId: 10329650, shopName: "帝都护肤造型",shopGlng:121.4271798,shopGlat:31.26180549,shopPower: NULL,shopType: NULL,mainCategoryName: NULL,categoryURLName: NULL,shopGroupId: NULL,categoryName: NULL,comNum:消费：-
 shopId: 10331219, shopName: "瘦工厂针灸火罐减肥",shopGlng:121.49459,shopGlat:31.17201,shopPower: NULL,shopType: NULL,mainCategoryName: NULL,categoryURLName: NULL,shopGroupId: NULL,categoryName: NULL,comNum:55条评论
 shopId: 10331539, shopName: "屈臣氏",shopGlng:121.420099999983,shopGlat:31.0148999999837,shopPower: NULL,shopType: NULL,mainCategoryName: NULL,categoryURLName: NULL,shopGroupId: NULL,categoryName: NULL,comNum:16条评论
 shopId: 10332248, shopName: "老五工作室",shopGlng:121.497308,shopGlat:31.288216,shopPower: NULL,shopType: NULL,mainCategoryName: NULL,categoryURLName: NULL,shopGroupId: NULL,categoryName: NULL,comNum:5条评论
 shopId: 10333506, shopName: "紫颖美胸性感中心",shopGlng:121.38731,shopGlat:31.107411,shopPower: NULL,shopType: NULL,mainCategoryName: NULL,categoryURLName: NULL,shopGroupId: NULL,categoryName: NULL,comNum:80条评论
 shopId: 10337569, shopName: "安娜美甲美睫沙龙",shopGlng:121.419723,shopGlat:31.218431,shopPower: NULL,shopType: NULL,mainCategoryName: NULL,categoryURLName: NULL,shopGroupId: NULL,categoryName: NULL,comNum:1075条评论
 shopId: 10337599, shopName: "郑多燕燃脂塑形课程授权店",shopGlng:121.19729029869363,shopGlat:31.016680182572276,shopPower: NULL,shopType: NULL,mainCategoryName: NULL,categoryURLName: NULL,shopGroupId: NULL,categoryName: NULL,comNum:人均：-
 shopId: 10339345, shopName: "旭峰美发",shopGlng:121.12131,shopGlat:31.15152,shopPower: NULL,shopType: NULL,mainCategoryName: NULL,categoryURLName: NULL,shopGroupId: NULL,categoryName: NULL,comNum:1条评论
 shopId: 10339366, shopName: "张玉珊修身堂",shopGlng:121.416590000044,shopGlat:31.2190490000072,shopPower: NULL,shopType: NULL,mainCategoryName: NULL,categoryURLName: NULL,shopGroupId: NULL,categoryName: NULL,comNum:97条评论
 shopId: 10339694, shopName: "金皇子形象设计 华星店",shopGlng:121.7658498,shopGlat:31.11930689,shopPower: NULL,shopType: NULL,mainCategoryName: NULL,categoryURLName: NULL,shopGroupId: NULL,categoryName: NULL,comNum:5条评论
 shopId: 10341977, shopName: "依瑞莎假发",shopGlng:121.48835,shopGlat:31.212341,shopPower: NULL,shopType: NULL,mainCategoryName: NULL,categoryURLName: NULL,shopGroupId: NULL,categoryName: NULL,comNum:1条评论
 shopId: 10342351, shopName: "德国雅莱贝斯",shopGlng:121.450377999798,shopGlat:31.1552850000533,shopPower: NULL,shopType: NULL,mainCategoryName: NULL,categoryURLName: NULL,shopGroupId: NULL,categoryName: NULL,comNum:1条评论
 shopId: 10342354, shopName: "kevin studio",shopGlng:121.47141,shopGlat:31.22073,shopPower: NULL,shopType: NULL,mainCategoryName: NULL,categoryURLName: NULL,shopGroupId: NULL,categoryName: NULL,comNum:392条评论
shopId: NULL,shopName: NULL,shopGlng:121.562279,shopGlat:31.259416,shopPower: NULL,shopType: NULL,mainCategoryName: NULL,categoryURLName: NULL,shopGroupId: NULL,categoryName: NULL,comNum:2条评论
 shopId: 10344529, shopName: "美丽妈妈健康管理中心",shopGlng:121.51270992857285,shopGlat:31.14096892544929,shopPower: NULL,shopType: NULL,mainCategoryName: NULL,categoryURLName: NULL,shopGroupId: NULL,categoryName: NULL,comNum:82条评论
 shopId: 10349443, shopName: "CICI纤美",shopGlng:121.4581899,shopGlat:31.23373412,shopPower: NULL,shopType: NULL,mainCategoryName: NULL,categoryURLName: NULL,shopGroupId: NULL,categoryName: NULL,comNum:8条评论
 shopId: 10349619, shopName: "香港修身堂",shopGlng:121.407075,shopGlat:31.13042941,shopPower: NULL,shopType: NULL,mainCategoryName: NULL,categoryURLName: NULL,shopGroupId: NULL,categoryName: NULL,comNum:36条评论
 shopId: 10351567, shopName: "ELIM NAILS 以琳美甲美睫",shopGlng:121.417869,shopGlat:31.21938,shopPower: NULL,shopType: NULL,mainCategoryName: NULL,categoryURLName: NULL,shopGroupId: NULL,categoryName: NULL,comNum:36条评论
 shopId: 10360898, shopName: "伊姿美甲",shopGlng:121.480954999901,shopGlat:31.226887999967,shopPower: NULL,shopType: NULL,mainCategoryName: NULL,categoryURLName: NULL,shopGroupId: NULL,categoryName: NULL,comNum:32条评论
 shopId: 10408984, shopName: "黛妍美甲美睫",shopGlng:121.44266,shopGlat:31.22321,shopPower: NULL,shopType: NULL,mainCategoryName: NULL,categoryURLName: NULL,shopGroupId: NULL,categoryName: NULL,comNum:348条评论
 shopId: 10645475, shopName: "新天地",shopGlng:121.770819999854,shopGlat:31.0440099999675,shopPower: NULL,shopType: NULL,mainCategoryName: NULL,categoryURLName: NULL,shopGroupId: NULL,categoryName: NULL,comNum:消费：-
 shopId: 10645476, shopName: "露娜舞蹈会所Luna studio",shopGlng:121.426033,shopGlat:31.219147,shopPower: NULL,shopType: NULL,mainCategoryName: NULL,categoryURLName: NULL,shopGroupId: NULL,categoryName: NULL,comNum:25条评论
 shopId: 10647032, shopName: "Show Time美甲美睫",shopGlng:121.45891,shopGlat:31.22147,shopPower: NULL,shopType: NULL,mainCategoryName: NULL,categoryURLName: NULL,shopGroupId: NULL,categoryName: NULL,comNum:119条评论
 shopId: 10648697, shopName: "星盛美容美发",shopGlng:121.3426302,shopGlat:30.73117372,shopPower: NULL,shopType: NULL,mainCategoryName: NULL,categoryURLName: NULL,shopGroupId: NULL,categoryName: NULL,comNum:1条评论
 shopId: 10649408, shopName: "戴西养生堂",shopGlng:121.477683,shopGlat:31.225108,shopPower: NULL,shopType: NULL,mainCategoryName: NULL,categoryURLName: NULL,shopGroupId: NULL,categoryName: NULL,comNum:103条评论
 shopId: 10650725, shopName: "美悦荟ESPA",shopGlng:121.370228,shopGlat:31.209064,shopPower: NULL,shopType: NULL,mainCategoryName: NULL,categoryURLName: NULL,shopGroupId: NULL,categoryName: NULL,comNum:34条评论
 shopId: 10650784, shopName: "爱尚美甲",shopGlng:121.45923,shopGlat:31.25752,shopPower: NULL,shopType: NULL,mainCategoryName: NULL,categoryURLName: NULL,shopGroupId: NULL,categoryName: NULL,comNum:6条评论
 shopId: 10653346, shopName: "东瀛国际造型",shopGlng:121.51432,shopGlat:31.23178,shopPower: NULL,shopType: NULL,mainCategoryName: NULL,categoryURLName: NULL,shopGroupId: NULL,categoryName: NULL,comNum:1157条评论
 shopId: 10653670, shopName: "仁爱北岸美容生活馆",shopGlng:121.435948,shopGlat:31.175567,shopPower: NULL,shopType: NULL,mainCategoryName: NULL,categoryURLName: NULL,shopGroupId: NULL,categoryName: NULL,comNum:8条评论
 shopId: 10655116, shopName: "玫瑰SPA养生会所",shopGlng:121.41257,shopGlat:31.27628823,shopPower: NULL,shopType: NULL,mainCategoryName: NULL,categoryURLName: NULL,shopGroupId: NULL,categoryName: NULL,comNum:消费：-
 shopId: 10655809, shopName: "思密达",shopGlng:121.4372021,shopGlat:31.196661,shopPower: NULL,shopType: NULL,mainCategoryName: NULL,categoryURLName: NULL,shopGroupId: NULL,categoryName: NULL,comNum:1049条评论
 shopId: 10655885, shopName: "金美秀专业瘦身",shopGlng:121.1193398,shopGlat:31.15069357,shopPower: NULL,shopType: NULL,mainCategoryName: NULL,categoryURLName: NULL,shopGroupId: NULL,categoryName: NULL,comNum:消费：133元
 shopId: 10657165, shopName: "美甲小屋",shopGlng:121.425345,shopGlat:31.284299,shopPower: NULL,shopType: NULL,mainCategoryName: NULL,categoryURLName: NULL,shopGroupId: NULL,categoryName: NULL,comNum:6条评论
 shopId: 10662155, shopName: "青白纹身",shopGlng:121.393489,shopGlat:31.20408,shopPower: NULL,shopType: NULL,mainCategoryName: NULL,categoryURLName: NULL,shopGroupId: NULL,categoryName: NULL,comNum:69条评论
 shopId: 10662232, shopName: "雅芳",shopGlng:121.4114,shopGlat:31.30406,shopPower: NULL,shopType: NULL,mainCategoryName: NULL,categoryURLName: NULL,shopGroupId: NULL,categoryName: NULL,comNum:消费：-
 shopId: 10662247, shopName: "雅芳",shopGlng:121.379216,shopGlat:31.314685,shopPower: NULL,shopType: NULL,mainCategoryName: NULL,categoryURLName: NULL,shopGroupId: NULL,categoryName: NULL,comNum:消费：-
 shopId: 10662442, shopName: "雅芳",shopGlng:120.96641,shopGlat:31.0669,shopPower: NULL,shopType: NULL,mainCategoryName: NULL,categoryURLName: NULL,shopGroupId: NULL,categoryName: NULL,comNum:消费：-
 shopId: 10663656, shopName: "sisley希思黎",shopGlng:121.447487,shopGlat:31.223461,shopPower: NULL,shopType: NULL,mainCategoryName: NULL,categoryURLName: NULL,shopGroupId: NULL,categoryName: NULL,comNum:9条评论
 shopId: 10666022, shopName: "琪露烫染店",shopGlng:121.562120000044,shopGlat:31.1215999999823,shopPower: NULL,shopType: NULL,mainCategoryName: NULL,categoryURLName: NULL,shopGroupId: NULL,categoryName: NULL,comNum:消费：-
 shopId: 10667442, shopName: "蝴蝶美甲店",shopGlng:121.4686639,shopGlat:31.20876889,shopPower: NULL,shopType: NULL,mainCategoryName: NULL,categoryURLName: NULL,shopGroupId: NULL,categoryName: NULL,comNum:177条评论
 shopId: 10667884, shopName: "瘦工厂针灸火罐减肥",shopGlng:121.47065,shopGlat:31.26437,shopPower: NULL,shopType: NULL,mainCategoryName: NULL,categoryURLName: NULL,shopGroupId: NULL,categoryName: NULL,comNum:26条评论
 shopId: 10668034, shopName: "美联社",shopGlng:121.41789,shopGlat:31.21854,shopPower: NULL,shopType: NULL,mainCategoryName: NULL,categoryURLName: NULL,shopGroupId: NULL,categoryName: NULL,comNum:1013条评论
 shopId: 10668852, shopName: "科丝美诗化妆品",shopGlng:121.4540732,shopGlat:30.94913177,shopPower: NULL,shopType: NULL,mainCategoryName: NULL,categoryURLName: NULL,shopGroupId: NULL,categoryName: NULL,comNum:消费：-
 shopId: 10724203, shopName: "上海一佳日用品有有限公司",shopGlng:121.585152,shopGlat:31.124879,shopPower: NULL,shopType: NULL,mainCategoryName: NULL,categoryURLName: NULL,shopGroupId: NULL,categoryName: NULL,comNum:消费：-
 shopId: 10749460, shopName: "Bioil百洛护肤油",shopGlng:121.4633296,shopGlat:31.21845224,shopPower: NULL,shopType: NULL,mainCategoryName: NULL,categoryURLName: NULL,shopGroupId: NULL,categoryName: NULL,comNum:1条评论
 shopId: 10752330, shopName: "Bioil百洛护肤油",shopGlng:121.436786,shopGlat:31.239322,shopPower: NULL,shopType: NULL,mainCategoryName: NULL,categoryURLName: NULL,shopGroupId: NULL,categoryName: NULL,comNum:1条评论
 shopId: 10764113, shopName: "Bioil百洛护肤油",shopGlng:121.500178399986,shopGlat:31.237628500016,shopPower: NULL,shopType: NULL,mainCategoryName: NULL,categoryURLName: NULL,shopGroupId: NULL,categoryName: NULL,comNum:1条评论
 shopId: 10767288, shopName: "Bioil百洛护肤油",shopGlng:121.482469,shopGlat:31.281918,shopPower: NULL,shopType: NULL,mainCategoryName: NULL,categoryURLName: NULL,shopGroupId: NULL,categoryName: NULL,comNum:1条评论
 shopId: 10772035, shopName: "Bioil百洛护肤油",shopGlng:121.48461,shopGlat:31.23697971,shopPower: NULL,shopType: NULL,mainCategoryName: NULL,categoryURLName: NULL,shopGroupId: NULL,categoryName: NULL,comNum:1条评论
 shopId: 10772842, shopName: "Bioil百洛护肤油",shopGlng:121.559707,shopGlat:31.226924,shopPower: NULL,shopType: NULL,mainCategoryName: NULL,categoryURLName: NULL,shopGroupId: NULL,categoryName: NULL,comNum:消费：-
 shopId: 10789549, shopName: "Bioil百洛护肤油",shopGlng:121.5161443,shopGlat:31.30062428,shopPower: NULL,shopType: NULL,mainCategoryName: NULL,categoryURLName: NULL,shopGroupId: NULL,categoryName: NULL,comNum:消费：-
 shopId: 10797127, shopName: "Bioil百洛护肤油",shopGlng:121.5201609,shopGlat:31.20869438,shopPower: NULL,shopType: NULL,mainCategoryName: NULL,categoryURLName: NULL,shopGroupId: NULL,categoryName: NULL,comNum:2条评论
 shopId: 11327665, shopName: "郑多燕燃脂塑形课程授权店",shopGlng:121.528491,shopGlat:31.211153,shopPower: NULL,shopType: NULL,mainCategoryName: NULL,categoryURLName: NULL,shopGroupId: NULL,categoryName: NULL,comNum:人均：-
 shopId: 11546983, shopName: "博道",shopGlng:121.262988,shopGlat:31.187112,shopPower: NULL,shopType: NULL,mainCategoryName: NULL,categoryURLName: NULL,shopGroupId: NULL,categoryName: NULL,comNum:4条评论
 shopId: 11547965, shopName: "Exclusive Space Salon",shopGlng:121.492349999986,shopGlat:31.2576599999754,shopPower: NULL,shopType: NULL,mainCategoryName: NULL,categoryURLName: NULL,shopGroupId: NULL,categoryName: NULL,comNum:162条评论
 shopId: 11548296, shopName: "格灵造型",shopGlng:121.4250395,shopGlat:31.21498528,shopPower: NULL,shopType: NULL,mainCategoryName: NULL,categoryURLName: NULL,shopGroupId: NULL,categoryName: NULL,comNum:19条评论
 shopId: 11548620, shopName: "梵希造型",shopGlng:121.389486,shopGlat:31.354896,shopPower: NULL,shopType: NULL,mainCategoryName: NULL,categoryURLName: NULL,shopGroupId: NULL,categoryName: NULL,comNum:2条评论
 shopId: 11549475, shopName: "Eros Salon",shopGlng:121.47846,shopGlat:31.23359007,shopPower: NULL,shopType: NULL,mainCategoryName: NULL,categoryURLName: NULL,shopGroupId: NULL,categoryName: NULL,comNum:124条评论
 shopId: 11549831, shopName: "唯美化妆美甲",shopGlng:121.3915955,shopGlat:31.20213281,shopPower: NULL,shopType: NULL,mainCategoryName: NULL,categoryURLName: NULL,shopGroupId: NULL,categoryName: NULL,comNum:64条评论
 shopId: 11550270, shopName: "刘娟美甲沙龙",shopGlng:121.502866,shopGlat:31.236177,shopPower: NULL,shopType: NULL,mainCategoryName: NULL,categoryURLName: NULL,shopGroupId: NULL,categoryName: NULL,comNum:243条评论
 shopId: 11550953, shopName: "NASALL娜莎美甲-美睫",shopGlng:121.23553,shopGlat:31.00566,shopPower: NULL,shopType: NULL,mainCategoryName: NULL,categoryURLName: NULL,shopGroupId: NULL,categoryName: NULL,comNum:2条评论
 shopId: 11552211, shopName: "安汀国际肌肤健康管理",shopGlng:121.515073,shopGlat:31.229019,shopPower: NULL,shopType: NULL,mainCategoryName: NULL,categoryURLName: NULL,shopGroupId: NULL,categoryName: NULL,comNum:135条评论
 shopId: 11552218, shopName: "韩医生皮肤管理中心",shopGlng:121.460437,shopGlat:31.234425,shopPower: NULL,shopType: NULL,mainCategoryName: NULL,categoryURLName: NULL,shopGroupId: NULL,categoryName: NULL,comNum:234条评论
 shopId: 11552229, shopName: "安汀国际肌肤健康管理",shopGlng:121.483442,shopGlat:31.25834215,shopPower: NULL,shopType: NULL,mainCategoryName: NULL,categoryURLName: NULL,shopGroupId: NULL,categoryName: NULL,comNum:153条评论
 shopId: 11554542, shopName: "尢纤美瘦身工作室",shopGlng:121.54251,shopGlat:31.239672,shopPower: NULL,shopType: NULL,mainCategoryName: NULL,categoryURLName: NULL,shopGroupId: NULL,categoryName: NULL,comNum:31条评论
 shopId: 11555130, shopName: "指旋律美甲馆",shopGlng:121.41674,shopGlat:31.28481,shopPower: NULL,shopType: NULL,mainCategoryName: NULL,categoryURLName: NULL,shopGroupId: NULL,categoryName: NULL,comNum:7条评论
 shopId: 11556738, shopName: "百合",shopGlng:121.4245998,shopGlat:31.2482145,shopPower: NULL,shopType: NULL,mainCategoryName: NULL,categoryURLName: NULL,shopGroupId: NULL,categoryName: NULL,comNum:20条评论
 shopId: 11557666, shopName: "时尚芭沙护肤造型",shopGlng:121.466826,shopGlat:31.267088,shopPower: NULL,shopType: NULL,mainCategoryName: NULL,categoryURLName: NULL,shopGroupId: NULL,categoryName: NULL,comNum:96条评论
 shopId: 11559491, shopName: "Arthur & Osting",shopGlng:121.42805,shopGlat:31.18476,shopPower: NULL,shopType: NULL,mainCategoryName: NULL,categoryURLName: NULL,shopGroupId: NULL,categoryName: NULL,comNum:7条评论
 shopId: 11560567, shopName: "雅馨美甲美睫",shopGlng:121.517222,shopGlat:31.293873,shopPower: NULL,shopType: NULL,mainCategoryName: NULL,categoryURLName: NULL,shopGroupId: NULL,categoryName: NULL,comNum:59条评论
 shopId: 11564689, shopName: "洗纹身",shopGlng:121.48397,shopGlat:31.26386,shopPower: NULL,shopType: NULL,mainCategoryName: NULL,categoryURLName: NULL,shopGroupId: NULL,categoryName: NULL,comNum:53条评论
 shopId: 11565123, shopName: "完美女人专业减肥店",shopGlng:121.6147499,shopGlat:31.2032978,shopPower: NULL,shopType: NULL,mainCategoryName: NULL,categoryURLName: NULL,shopGroupId: NULL,categoryName: NULL,comNum:1条评论
 shopId: 11565654, shopName: "理肤泉",shopGlng:121.482377,shopGlat:31.236405,shopPower: NULL,shopType: NULL,mainCategoryName: NULL,categoryURLName: NULL,shopGroupId: NULL,categoryName: NULL,comNum:85条评论
 shopId: 11565960, shopName: "新德曼",shopGlng:121.483380000214,shopGlat:31.2368299999757,shopPower: NULL,shopType: NULL,mainCategoryName: NULL,categoryURLName: NULL,shopGroupId: NULL,categoryName: NULL,comNum:11条评论
 shopId: 11567456, shopName: "郑多燕燃脂塑形课程授权店",shopGlng:121.315651,shopGlat:31.135242,shopPower: NULL,shopType: NULL,mainCategoryName: NULL,categoryURLName: NULL,shopGroupId: NULL,categoryName: NULL,comNum:人均：-
 shopId: 11567489, shopName: "郑多燕燃脂塑形课程授权店",shopGlng:121.418714,shopGlat:31.275783,shopPower: NULL,shopType: NULL,mainCategoryName: NULL,categoryURLName: NULL,shopGroupId: NULL,categoryName: NULL,comNum:人均：-
 shopId: 11569853, shopName: "立邦形象",shopGlng:121.771370999854,shopGlat:31.0441149999675,shopPower: NULL,shopType: NULL,mainCategoryName: NULL,categoryURLName: NULL,shopGroupId: NULL,categoryName: NULL,comNum:消费：-
 shopId: 11571220, shopName: "香港雪纤瘦美容中心",shopGlng:121.517834,shopGlat:31.227324,shopPower: NULL,shopType: NULL,mainCategoryName: NULL,categoryURLName: NULL,shopGroupId: NULL,categoryName: NULL,comNum:65条评论
 shopId: 11575062, shopName: "東田造型",shopGlng:121.455162,shopGlat:31.22833,shopPower: NULL,shopType: NULL,mainCategoryName: NULL,categoryURLName: NULL,shopGroupId: NULL,categoryName: NULL,comNum:69条评论
 shopId: 11575991, shopName: "无限造型美容",shopGlng:121.4924798,shopGlat:31.28081732,shopPower: NULL,shopType: NULL,mainCategoryName: NULL,categoryURLName: NULL,shopGroupId: NULL,categoryName: NULL,comNum:6条评论
 shopId: 11576792, shopName: "innisfree",shopGlng:121.47824,shopGlat:31.27102,shopPower: NULL,shopType: NULL,mainCategoryName: NULL,categoryURLName: NULL,shopGroupId: NULL,categoryName: NULL,comNum:106条评论
 shopId: 11577485, shopName: "天姿艾灸美容",shopGlng:121.38487,shopGlat:31.31478,shopPower: NULL,shopType: NULL,mainCategoryName: NULL,categoryURLName: NULL,shopGroupId: NULL,categoryName: NULL,comNum:消费：-
 shopId: 11577822, shopName: "ME甲",shopGlng:121.45380452474,shopGlat:31.33063015408,shopPower: NULL,shopType: NULL,mainCategoryName: NULL,categoryURLName: NULL,shopGroupId: NULL,categoryName: NULL,comNum:71条评论
 shopId: 11594158, shopName: "叶子美甲",shopGlng:121.3947,shopGlat:31.063652,shopPower: NULL,shopType: NULL,mainCategoryName: NULL,categoryURLName: NULL,shopGroupId: NULL,categoryName: NULL,comNum:5条评论
 shopId: 12165132, shopName: "御美时尚美甲坊",shopGlng:121.46769,shopGlat:31.27375,shopPower: NULL,shopType: NULL,mainCategoryName: NULL,categoryURLName: NULL,shopGroupId: NULL,categoryName: NULL,comNum:19条评论
 shopId: 12592885, shopName: "OLIVEYOUNG",shopGlng:121.412595,shopGlat:31.232962,shopPower: NULL,shopType: NULL,mainCategoryName: NULL,categoryURLName: NULL,shopGroupId: NULL,categoryName: NULL,comNum:108条评论
 shopId: 12593104, shopName: "Lancome",shopGlng:121.3879102,shopGlat:31.10836193,shopPower: NULL,shopType: NULL,mainCategoryName: NULL,categoryURLName: NULL,shopGroupId: NULL,categoryName: NULL,comNum:消费：-
 shopId: 12593323, shopName: "伊秀美甲",shopGlng:121.412595,shopGlat:31.232962,shopPower: NULL,shopType: NULL,mainCategoryName: NULL,categoryURLName: NULL,shopGroupId: NULL,categoryName: NULL,comNum:41条评论
 shopId: 12595979, shopName: "汪凌韩式半永久定妆纹眉绣眉纹眼线",shopGlng:121.4831828,shopGlat:31.233908,shopPower: NULL,shopType: NULL,mainCategoryName: NULL,categoryURLName: NULL,shopGroupId: NULL,categoryName: NULL,comNum:11条评论
 shopId: 12596556, shopName: "龙庭养生会所",shopGlng:121.476258,shopGlat:31.286782,shopPower: NULL,shopType: NULL,mainCategoryName: NULL,categoryURLName: NULL,shopGroupId: NULL,categoryName: NULL,comNum:2条评论
 shopId: 12596996, shopName: "炫风造型",shopGlng:121.593429,shopGlat:31.271045,shopPower: NULL,shopType: NULL,mainCategoryName: NULL,categoryURLName: NULL,shopGroupId: NULL,categoryName: NULL,comNum:消费：-
 shopId: 12597599, shopName: "姗姗美甲",shopGlng:121.44243,shopGlat:31.23051,shopPower: NULL,shopType: NULL,mainCategoryName: NULL,categoryURLName: NULL,shopGroupId: NULL,categoryName: NULL,comNum:2条评论
 shopId: 12599405, shopName: "CC NAIL",shopGlng:121.457939999892,shopGlat:31.2183749999984,shopPower: NULL,shopType: NULL,mainCategoryName: NULL,categoryURLName: NULL,shopGroupId: NULL,categoryName: NULL,comNum:61条评论
 shopId: 12879403, shopName: "Yoga108",shopGlng:121.39279,shopGlat:31.1963,shopPower: NULL,shopType: NULL,mainCategoryName: NULL,categoryURLName: NULL,shopGroupId: NULL,categoryName: NULL,comNum:7条评论
 shopId: 13126501, shopName: "DongBao 秀发",shopGlng:121.541651,shopGlat:31.311385,shopPower: NULL,shopType: NULL,mainCategoryName: NULL,categoryURLName: NULL,shopGroupId: NULL,categoryName: NULL,comNum:1条评论
 shopId: 13409490, shopName: "琴琴美容美体养生馆",shopGlng:121.487474,shopGlat:31.279978,shopPower: NULL,shopType: NULL,mainCategoryName: NULL,categoryURLName: NULL,shopGroupId: NULL,categoryName: NULL,comNum:4条评论
 shopId: 13603387, shopName: "JUST BB",shopGlng:121.4111,shopGlat:31.23133,shopPower: NULL,shopType: NULL,mainCategoryName: NULL,categoryURLName: NULL,shopGroupId: NULL,categoryName: NULL,comNum:6条评论
 shopId: 13658639, shopName: "梵创造型",shopGlng:121.412774,shopGlat:31.232856,shopPower: NULL,shopType: NULL,mainCategoryName: NULL,categoryURLName: NULL,shopGroupId: NULL,categoryName: NULL,comNum:487条评论
 shopId: 13658795, shopName: "idance舞蹈瑜伽健身馆",shopGlng:121.52874999991,shopGlat:31.2247199999582,shopPower: NULL,shopType: NULL,mainCategoryName: NULL,categoryURLName: NULL,shopGroupId: NULL,categoryName: NULL,comNum:70条评论
 shopId: 13660722, shopName: "伊甲轩",shopGlng:121.42277,shopGlat:31.01276169,shopPower: NULL,shopType: NULL,mainCategoryName: NULL,categoryURLName: NULL,shopGroupId: NULL,categoryName: NULL,comNum:消费：-
 shopId: 13660832, shopName: "BUT SALON",shopGlng:121.461545,shopGlat:31.209399,shopPower: NULL,shopType: NULL,mainCategoryName: NULL,categoryURLName: NULL,shopGroupId: NULL,categoryName: NULL,comNum:12条评论
 shopId: 13661717, shopName: "克丽缇娜",shopGlng:121.216643,shopGlat:31.038523,shopPower: NULL,shopType: NULL,mainCategoryName: NULL,categoryURLName: NULL,shopGroupId: NULL,categoryName: NULL,comNum:3条评论
 shopId: 13661769, shopName: "蔓菲国际SPA会所",shopGlng:121.233609,shopGlat:31.033454,shopPower: NULL,shopType: NULL,mainCategoryName: NULL,categoryURLName: NULL,shopGroupId: NULL,categoryName: NULL,comNum:1条评论
 shopId: 13661876, shopName: "安迪造型",shopGlng:121.586360000197,shopGlat:31.1195400000137,shopPower: NULL,shopType: NULL,mainCategoryName: NULL,categoryURLName: NULL,shopGroupId: NULL,categoryName: NULL,comNum:10条评论
 shopId: 13662676, shopName: "机器猫Doraemon的口袋",shopGlng:121.420768000103,shopGlat:31.1444480000489,shopPower: NULL,shopType: NULL,mainCategoryName: NULL,categoryURLName: NULL,shopGroupId: NULL,categoryName: NULL,comNum:消费：-
 shopId: 13662758, shopName: "文文美甲韩式定妆工作室",shopGlng:121.519624,shopGlat:31.274111,shopPower: NULL,shopType: NULL,mainCategoryName: NULL,categoryURLName: NULL,shopGroupId: NULL,categoryName: NULL,comNum:58条评论
 shopId: 13664262, shopName: "iWo Fashion Style",shopGlng:121.40355,shopGlat:31.19469,shopPower: NULL,shopType: NULL,mainCategoryName: NULL,categoryURLName: NULL,shopGroupId: NULL,categoryName: NULL,comNum:253条评论
 shopId: 13664525, shopName: "波贝尔.沨spa",shopGlng:121.513402,shopGlat:31.261045,shopPower: NULL,shopType: NULL,mainCategoryName: NULL,categoryURLName: NULL,shopGroupId: NULL,categoryName: NULL,comNum:1条评论
 shopId: 13667589, shopName: "innisfree",shopGlng:121.43975,shopGlat:31.19332,shopPower: NULL,shopType: NULL,mainCategoryName: NULL,categoryURLName: NULL,shopGroupId: NULL,categoryName: NULL,comNum:131条评论
 shopId: 13667771, shopName: "震轩美容美发连锁",shopGlng:121.751887,shopGlat:31.176256,shopPower: NULL,shopType: NULL,mainCategoryName: NULL,categoryURLName: NULL,shopGroupId: NULL,categoryName: NULL,comNum:6条评论
 shopId: 13667870, shopName: "克丽缇娜",shopGlng:121.49377,shopGlat:31.3973,shopPower: NULL,shopType: NULL,mainCategoryName: NULL,categoryURLName: NULL,shopGroupId: NULL,categoryName: NULL,comNum:1条评论
 shopId: 13668341, shopName: "一念空间",shopGlng:121.34779,shopGlat:31.157,shopPower: NULL,shopType: NULL,mainCategoryName: NULL,categoryURLName: NULL,shopGroupId: NULL,categoryName: NULL,comNum:152条评论
 shopId: 13668746, shopName: "Max Factor",shopGlng:121.412595,shopGlat:31.232962,shopPower: NULL,shopType: NULL,mainCategoryName: NULL,categoryURLName: NULL,shopGroupId: NULL,categoryName: NULL,comNum:12条评论
 shopId: 13668987, shopName: "恋尚美甲工作室",shopGlng:121.633411,shopGlat:31.199129,shopPower: NULL,shopType: NULL,mainCategoryName: NULL,categoryURLName: NULL,shopGroupId: NULL,categoryName: NULL,comNum:5条评论
 shopId: 13671332, shopName: "克丽缇娜",shopGlng:121.3935199,shopGlat:31.17907961,shopPower: NULL,shopType: NULL,mainCategoryName: NULL,categoryURLName: NULL,shopGroupId: NULL,categoryName: NULL,comNum:22条评论
 shopId: 13679829, shopName: "克丽缇娜",shopGlng:121.408956,shopGlat:31.017541,shopPower: NULL,shopType: NULL,mainCategoryName: NULL,categoryURLName: NULL,shopGroupId: NULL,categoryName: NULL,comNum:2条评论
 shopId: 13680105, shopName: "克丽缇娜",shopGlng:121.51616,shopGlat:31.198184,shopPower: NULL,shopType: NULL,mainCategoryName: NULL,categoryURLName: NULL,shopGroupId: NULL,categoryName: NULL,comNum:34条评论
 shopId: 13680691, shopName: "修身堂",shopGlng:121.759228,shopGlat:31.046852,shopPower: NULL,shopType: NULL,mainCategoryName: NULL,categoryURLName: NULL,shopGroupId: NULL,categoryName: NULL,comNum:消费：-
 shopId: 13681245, shopName: "克丽缇娜",shopGlng:121.369485,shopGlat:31.193293,shopPower: NULL,shopType: NULL,mainCategoryName: NULL,categoryURLName: NULL,shopGroupId: NULL,categoryName: NULL,comNum:1条评论
 shopId: 13681393, shopName: "章光101养发生发防脱发",shopGlng:121.47976,shopGlat:31.204711,shopPower: NULL,shopType: NULL,mainCategoryName: NULL,categoryURLName: NULL,shopGroupId: NULL,categoryName: NULL,comNum:1条评论
 shopId: 13681463, shopName: "妮欧甲艺",shopGlng:121.473448,shopGlat:31.228722,shopPower: NULL,shopType: NULL,mainCategoryName: NULL,categoryURLName: NULL,shopGroupId: NULL,categoryName: NULL,comNum:46条评论
 shopId: 13682334, shopName: "克丽缇娜",shopGlng:121.4499102,shopGlat:30.90472507,shopPower: NULL,shopType: NULL,mainCategoryName: NULL,categoryURLName: NULL,shopGroupId: NULL,categoryName: NULL,comNum:1条评论
 shopId: 13682451, shopName: "玉芙蓉养生会所",shopGlng:121.233177185059,shopGlat:31.0386047363281,shopPower: NULL,shopType: NULL,mainCategoryName: NULL,categoryURLName: NULL,shopGroupId: NULL,categoryName: NULL,comNum:4条评论
 shopId: 13686476, shopName: "克丽缇娜",shopGlng:121.411697,shopGlat:31.007665,shopPower: NULL,shopType: NULL,mainCategoryName: NULL,categoryURLName: NULL,shopGroupId: NULL,categoryName: NULL,comNum:3条评论
 shopId: 13687975, shopName: "悦容堂美容纤体",shopGlng:121.438444,shopGlat:31.18866,shopPower: NULL,shopType: NULL,mainCategoryName: NULL,categoryURLName: NULL,shopGroupId: NULL,categoryName: NULL,comNum:3条评论
 shopId: 13688262, shopName: "发宣专业美发沙龙",shopGlng:121.309356,shopGlat:31.063523,shopPower: NULL,shopType: NULL,mainCategoryName: NULL,categoryURLName: NULL,shopGroupId: NULL,categoryName: NULL,comNum:消费：14元
 shopId: 13690466, shopName: "丰琳美妆美甲半永久",shopGlng:121.421499999968,shopGlat:31.2340199999937,shopPower: NULL,shopType: NULL,mainCategoryName: NULL,categoryURLName: NULL,shopGroupId: NULL,categoryName: NULL,comNum:4条评论
 shopId: 13691967, shopName: "果丽儿时尚美甲屋",shopGlng:121.2113607,shopGlat:31.04110298,shopPower: NULL,shopType: NULL,mainCategoryName: NULL,categoryURLName: NULL,shopGroupId: NULL,categoryName: NULL,comNum:2条评论
 shopId: 13693206, shopName: "真艾馆",shopGlng:121.472728,shopGlat:31.204703,shopPower: NULL,shopType: NULL,mainCategoryName: NULL,categoryURLName: NULL,shopGroupId: NULL,categoryName: NULL,comNum:49条评论
 shopId: 13693430, shopName: "助美美容养生馆",shopGlng:121.34431,shopGlat:30.73293,shopPower: NULL,shopType: NULL,mainCategoryName: NULL,categoryURLName: NULL,shopGroupId: NULL,categoryName: NULL,comNum:消费：-
 shopId: 13703446, shopName: "兔芭造型",shopGlng:121.512798,shopGlat:31.295304,shopPower: NULL,shopType: NULL,mainCategoryName: NULL,categoryURLName: NULL,shopGroupId: NULL,categoryName: NULL,comNum:343条评论
 shopId: 13703682, shopName: "梦怡专业祛眼袋",shopGlng:121.46638,shopGlat:31.23086,shopPower: NULL,shopType: NULL,mainCategoryName: NULL,categoryURLName: NULL,shopGroupId: NULL,categoryName: NULL,comNum:4条评论
 shopId: 13704184, shopName: "天目化妆品",shopGlng:121.6969297,shopGlat:31.19423816,shopPower: NULL,shopType: NULL,mainCategoryName: NULL,categoryURLName: NULL,shopGroupId: NULL,categoryName: NULL,comNum:消费：-
 shopId: 13704905, shopName: "佐藤私人形象工作室",shopGlng:121.538909,shopGlat:31.273896,shopPower: NULL,shopType: NULL,mainCategoryName: NULL,categoryURLName: NULL,shopGroupId: NULL,categoryName: NULL,comNum:8条评论
 shopId: 13706514, shopName: "瓦优商贸有限公司",shopGlng:121.437258,shopGlat:31.23031,shopPower: NULL,shopType: NULL,mainCategoryName: NULL,categoryURLName: NULL,shopGroupId: NULL,categoryName: NULL,comNum:消费：-
 shopId: 13707307, shopName: "UP Unite&Progress",shopGlng:121.517,shopGlat:31.227,shopPower: NULL,shopType: NULL,mainCategoryName: NULL,categoryURLName: NULL,shopGroupId: NULL,categoryName: NULL,comNum:268条评论
 shopId: 13707737, shopName: "主流造型",shopGlng:121.706632,shopGlat:31.186193,shopPower: NULL,shopType: NULL,mainCategoryName: NULL,categoryURLName: NULL,shopGroupId: NULL,categoryName: NULL,comNum:消费：-
 shopId: 13707817, shopName: "80秀造型SPA",shopGlng:121.3832,shopGlat:31.247609,shopPower: NULL,shopType: NULL,mainCategoryName: NULL,categoryURLName: NULL,shopGroupId: NULL,categoryName: NULL,comNum:161条评论
 shopId: 13710005, shopName: "赫本印象脱毛瘦身美容SPA",shopGlng:121.460986,shopGlat:31.204373,shopPower: NULL,shopType: NULL,mainCategoryName: NULL,categoryURLName: NULL,shopGroupId: NULL,categoryName: NULL,comNum:86条评论
 shopId: 13710319, shopName: "安婕妤美颜坊",shopGlng:121.3356,shopGlat:30.727764,shopPower: NULL,shopType: NULL,mainCategoryName: NULL,categoryURLName: NULL,shopGroupId: NULL,categoryName: NULL,comNum:消费：-
 shopId: 13714242, shopName: "无尚刺青纹身工作室",shopGlng:121.458029999816,shopGlat:31.2303300000072,shopPower: NULL,shopType: NULL,mainCategoryName: NULL,categoryURLName: NULL,shopGroupId: NULL,categoryName: NULL,comNum:25条评论
 shopId: 13714996, shopName: "尚觉造型设计",shopGlng:121.502920000044,shopGlat:31.151590000013,shopPower: NULL,shopType: NULL,mainCategoryName: NULL,categoryURLName: NULL,shopGroupId: NULL,categoryName: NULL,comNum:消费：-
 shopId: 13718493, shopName: "银芳养生美容",shopGlng:121.465789999816,shopGlat:31.2253499999582,shopPower: NULL,shopType: NULL,mainCategoryName: NULL,categoryURLName: NULL,shopGroupId: NULL,categoryName: NULL,comNum:2条评论
 shopId: 13719216, shopName: "Jn舞蹈",shopGlng:121.424614999968,shopGlat:31.2203860000431,shopPower: NULL,shopType: NULL,mainCategoryName: NULL,categoryURLName: NULL,shopGroupId: NULL,categoryName: NULL,comNum:人均：-
 shopId: 13719947, shopName: "欧尚美甲",shopGlng:121.423072,shopGlat:31.220028,shopPower: NULL,shopType: NULL,mainCategoryName: NULL,categoryURLName: NULL,shopGroupId: NULL,categoryName: NULL,comNum:20条评论
 shopId: 13722336, shopName: "妍造型",shopGlng:121.525589,shopGlat:31.220069,shopPower: NULL,shopType: NULL,mainCategoryName: NULL,categoryURLName: NULL,shopGroupId: NULL,categoryName: NULL,comNum:369条评论
 shopId: 13723815, shopName: "陆璐美甲",shopGlng:121.423959999892,shopGlat:31.2397700000025,shopPower: NULL,shopType: NULL,mainCategoryName: NULL,categoryURLName: NULL,shopGroupId: NULL,categoryName: NULL,comNum:20条评论
 shopId: 13724310, shopName: "修身堂健康美体服务中心",shopGlng:121.80708,shopGlat:30.89888,shopPower: NULL,shopType: NULL,mainCategoryName: NULL,categoryURLName: NULL,shopGroupId: NULL,categoryName: NULL,comNum:1条评论
 shopId: 13725500, shopName: "日本银座Calla专业脱毛连锁机构",shopGlng:121.442388,shopGlat:31.187825,shopPower: NULL,shopType: NULL,mainCategoryName: NULL,categoryURLName: NULL,shopGroupId: NULL,categoryName: NULL,comNum:462条评论
 shopId: 13727251, shopName: "谢馥春",shopGlng:121.49145,shopGlat:31.22719,shopPower: NULL,shopType: NULL,mainCategoryName: NULL,categoryURLName: NULL,shopGroupId: NULL,categoryName: NULL,comNum:9条评论
 shopId: 13728065, shopName: "欢心美甲店",shopGlng:121.465611,shopGlat:31.265723,shopPower: NULL,shopType: NULL,mainCategoryName: NULL,categoryURLName: NULL,shopGroupId: NULL,categoryName: NULL,comNum:5条评论
 shopId: 13729148, shopName: "美伊堂国际SPA养生馆",shopGlng:121.5787,shopGlat:31.11535,shopPower: NULL,shopType: NULL,mainCategoryName: NULL,categoryURLName: NULL,shopGroupId: NULL,categoryName: NULL,comNum:9条评论
 shopId: 13729750, shopName: "李斌医疗美容外科诊所",shopGlng:121.44286,shopGlat:31.189079,shopPower: NULL,shopType: NULL,mainCategoryName: NULL,categoryURLName: NULL,shopGroupId: NULL,categoryName: NULL,comNum:7条评论
 shopId: 13730995, shopName: "三摩地瑜伽",shopGlng:121.386287,shopGlat:31.186099,shopPower: NULL,shopType: NULL,mainCategoryName: NULL,categoryURLName: NULL,shopGroupId: NULL,categoryName: NULL,comNum:50条评论
 shopId: 13736785, shopName: "达维形象设计",shopGlng:121.480552,shopGlat:31.206807,shopPower: NULL,shopType: NULL,mainCategoryName: NULL,categoryURLName: NULL,shopGroupId: NULL,categoryName: NULL,comNum:2条评论
 shopId: 13739666, shopName: "momo",shopGlng:121.44791,shopGlat:31.223349,shopPower: NULL,shopType: NULL,mainCategoryName: NULL,categoryURLName: NULL,shopGroupId: NULL,categoryName: NULL,comNum:4条评论
 shopId: 13740372, shopName: "Easy Lady美甲美睫半永久纹绣工作室",shopGlng:121.423185,shopGlat:31.219,shopPower: NULL,shopType: NULL,mainCategoryName: NULL,categoryURLName: NULL,shopGroupId: NULL,categoryName: NULL,comNum:562条评论
 shopId: 13741284, shopName: "乔形象",shopGlng:121.518815,shopGlat:31.229101,shopPower: NULL,shopType: NULL,mainCategoryName: NULL,categoryURLName: NULL,shopGroupId: NULL,categoryName: NULL,comNum:193条评论
 shopId: 13741321, shopName: "Stenders",shopGlng:121.4463,shopGlat:31.22365,shopPower: NULL,shopType: NULL,mainCategoryName: NULL,categoryURLName: NULL,shopGroupId: NULL,categoryName: NULL,comNum:12条评论
 shopId: 13741746, shopName: "Berrymay健康管理",shopGlng:121.456958,shopGlat:31.224672,shopPower: NULL,shopType: NULL,mainCategoryName: NULL,categoryURLName: NULL,shopGroupId: NULL,categoryName: NULL,comNum:242条评论
 shopId: 13741867, shopName: "美荟美容美发",shopGlng:121.5807304,shopGlat:31.11675494,shopPower: NULL,shopType: NULL,mainCategoryName: NULL,categoryURLName: NULL,shopGroupId: NULL,categoryName: NULL,comNum:17条评论
 shopId: 13745619, shopName: "万合专业发型定制",shopGlng:121.391665,shopGlat:31.352069,shopPower: NULL,shopType: NULL,mainCategoryName: NULL,categoryURLName: NULL,shopGroupId: NULL,categoryName: NULL,comNum:2条评论
 shopId: 13746007, shopName: "艾嘉形象日式サロン",shopGlng:121.555884,shopGlat:31.236898,shopPower: NULL,shopType: NULL,mainCategoryName: NULL,categoryURLName: NULL,shopGroupId: NULL,categoryName: NULL,comNum:589条评论
 shopId: 13746297, shopName: "老上海经典国货化妆品",shopGlng:121.428919999968,shopGlat:31.2227500000431,shopPower: NULL,shopType: NULL,mainCategoryName: NULL,categoryURLName: NULL,shopGroupId: NULL,categoryName: NULL,comNum:3条评论
 shopId: 13746417, shopName: "屈臣氏",shopGlng:121.45774,shopGlat:31.186043,shopPower: NULL,shopType: NULL,mainCategoryName: NULL,categoryURLName: NULL,shopGroupId: NULL,categoryName: NULL,comNum:44条评论
 shopId: 13748780, shopName: "SHO-BI",shopGlng:121.457268,shopGlat:31.229023,shopPower: NULL,shopType: NULL,mainCategoryName: NULL,categoryURLName: NULL,shopGroupId: NULL,categoryName: NULL,comNum:2条评论
 shopId: 13749603, shopName: "风尚",shopGlng:121.4479441,shopGlat:31.29710233,shopPower: NULL,shopType: NULL,mainCategoryName: NULL,categoryURLName: NULL,shopGroupId: NULL,categoryName: NULL,comNum:1条评论
 shopId: 13749712, shopName: "徐丽半永久定妆",shopGlng:121.510988,shopGlat:31.304717,shopPower: NULL,shopType: NULL,mainCategoryName: NULL,categoryURLName: NULL,shopGroupId: NULL,categoryName: NULL,comNum:31条评论
 shopId: 13750048, shopName: "香港修身堂",shopGlng:121.380759999959,shopGlat:31.1645899999677,shopPower: NULL,shopType: NULL,mainCategoryName: NULL,categoryURLName: NULL,shopGroupId: NULL,categoryName: NULL,comNum:7条评论
 shopId: 13750914, shopName: "天翼刺青",shopGlng:121.45634,shopGlat:31.224229,shopPower: NULL,shopType: NULL,mainCategoryName: NULL,categoryURLName: NULL,shopGroupId: NULL,categoryName: NULL,comNum:12条评论
 shopId: 13751740, shopName: "爱指美甲",shopGlng:121.52676,shopGlat:31.14431,shopPower: NULL,shopType: NULL,mainCategoryName: NULL,categoryURLName: NULL,shopGroupId: NULL,categoryName: NULL,comNum:25条评论
 shopId: 13764350, shopName: "东方美发",shopGlng:121.434495,shopGlat:31.326907,shopPower: NULL,shopType: NULL,mainCategoryName: NULL,categoryURLName: NULL,shopGroupId: NULL,categoryName: NULL,comNum:消费：-
 shopId: 13764538, shopName: "发泽发型工作室",shopGlng:121.457160000015,shopGlat:30.906589999887,shopPower: NULL,shopType: NULL,mainCategoryName: NULL,categoryURLName: NULL,shopGroupId: NULL,categoryName: NULL,comNum:消费：-
 shopId: 13764819, shopName: "辉妍美容发展中心",shopGlng:121.463239,shopGlat:31.219001,shopPower: NULL,shopType: NULL,mainCategoryName: NULL,categoryURLName: NULL,shopGroupId: NULL,categoryName: NULL,comNum:4条评论
 shopId: 13765723, shopName: "佰草集汉方SPA",shopGlng:121.45822,shopGlat:31.18634,shopPower: NULL,shopType: NULL,mainCategoryName: NULL,categoryURLName: NULL,shopGroupId: NULL,categoryName: NULL,comNum:74条评论
 shopId: 13766227, shopName: "丝域养发馆",shopGlng:121.315635681152,shopGlat:31.1485919952393,shopPower: NULL,shopType: NULL,mainCategoryName: NULL,categoryURLName: NULL,shopGroupId: NULL,categoryName: NULL,comNum:18条评论
 shopId: 13766613, shopName: "爱手爱脚",shopGlng:121.41168,shopGlat:31.238259,shopPower: NULL,shopType: NULL,mainCategoryName: NULL,categoryURLName: NULL,shopGroupId: NULL,categoryName: NULL,comNum:2条评论
 shopId: 13767273, shopName: "Chaya nails",shopGlng:121.471911,shopGlat:31.199405,shopPower: NULL,shopType: NULL,mainCategoryName: NULL,categoryURLName: NULL,shopGroupId: NULL,categoryName: NULL,comNum:62条评论
 shopId: 13767874, shopName: "百利悠专业美甲沙龙",shopGlng:121.536173,shopGlat:31.294969,shopPower: NULL,shopType: NULL,mainCategoryName: NULL,categoryURLName: NULL,shopGroupId: NULL,categoryName: NULL,comNum:17条评论
 shopId: 13769277, shopName: "东瀛国际造型",shopGlng:121.443741,shopGlat:31.200666,shopPower: NULL,shopType: NULL,mainCategoryName: NULL,categoryURLName: NULL,shopGroupId: NULL,categoryName: NULL,comNum:530条评论
 shopId: 13774852, shopName: "自然堂",shopGlng:121.34907,shopGlat:31.28183,shopPower: NULL,shopType: NULL,mainCategoryName: NULL,categoryURLName: NULL,shopGroupId: NULL,categoryName: NULL,comNum:3条评论
 shopId: 13775201, shopName: "红美发厅",shopGlng:121.456453333377,shopGlat:31.2082766666563,shopPower: NULL,shopType: NULL,mainCategoryName: NULL,categoryURLName: NULL,shopGroupId: NULL,categoryName: NULL,comNum:1条评论
 shopId: 13776577, shopName: "MaxFactor",shopGlng:121.37839,shopGlat:31.108161,shopPower: NULL,shopType: NULL,mainCategoryName: NULL,categoryURLName: NULL,shopGroupId: NULL,categoryName: NULL,comNum:2条评论
 shopId: 13777159, shopName: "克丽缇娜",shopGlng:121.188072,shopGlat:31.035062,shopPower: NULL,shopType: NULL,mainCategoryName: NULL,categoryURLName: NULL,shopGroupId: NULL,categoryName: NULL,comNum:2条评论
 shopId: 13777449, shopName: "释瑜伽",shopGlng:121.417447,shopGlat:31.233086,shopPower: NULL,shopType: NULL,mainCategoryName: NULL,categoryURLName: NULL,shopGroupId: NULL,categoryName: NULL,comNum:10条评论
 shopId: 13778403, shopName: "韩国熊津化妆品专业美容美体养生",shopGlng:121.426109999983,shopGlat:31.0157399999031,shopPower: NULL,shopType: NULL,mainCategoryName: NULL,categoryURLName: NULL,shopGroupId: NULL,categoryName: NULL,comNum:4条评论
 shopId: 13781116, shopName: "加优站专业SPA祛痘淡斑光子脱毛",shopGlng:121.61817,shopGlat:31.21326,shopPower: NULL,shopType: NULL,mainCategoryName: NULL,categoryURLName: NULL,shopGroupId: NULL,categoryName: NULL,comNum:34条评论
 shopId: 13781294, shopName: "莫蓉美甲",shopGlng:121.4838197,shopGlat:31.28019049,shopPower: NULL,shopType: NULL,mainCategoryName: NULL,categoryURLName: NULL,shopGroupId: NULL,categoryName: NULL,comNum:5条评论
 shopId: 13781748, shopName: "舒馨阁",shopGlng:121.539225,shopGlat:31.32469,shopPower: NULL,shopType: NULL,mainCategoryName: NULL,categoryURLName: NULL,shopGroupId: NULL,categoryName: NULL,comNum:2条评论
 shopId: 13785335, shopName: "宝宸纤体美容护理工作室",shopGlng:121.436976,shopGlat:31.330697,shopPower: NULL,shopType: NULL,mainCategoryName: NULL,categoryURLName: NULL,shopGroupId: NULL,categoryName: NULL,comNum:6条评论
 shopId: 13786159, shopName: "紫苏养生会所",shopGlng:121.4321289,shopGlat:31.20126915,shopPower: NULL,shopType: NULL,mainCategoryName: NULL,categoryURLName: NULL,shopGroupId: NULL,categoryName: NULL,comNum:609条评论
 shopId: 13787998, shopName: "BanniHouse美甲蜜蜡修眉屋",shopGlng:121.470392,shopGlat:31.222318,shopPower: NULL,shopType: NULL,mainCategoryName: NULL,categoryURLName: NULL,shopGroupId: NULL,categoryName: NULL,comNum:46条评论
 shopId: 13788011, shopName: "innisfree",shopGlng:121.457735,shopGlat:31.186285,shopPower: NULL,shopType: NULL,mainCategoryName: NULL,categoryURLName: NULL,shopGroupId: NULL,categoryName: NULL,comNum:40条评论
 shopId: 13788157, shopName: "CICI纤美",shopGlng:121.41145,shopGlat:31.27157,shopPower: NULL,shopType: NULL,mainCategoryName: NULL,categoryURLName: NULL,shopGroupId: NULL,categoryName: NULL,comNum:45条评论
 shopId: 13790164, shopName: "名赫造型",shopGlng:121.48378,shopGlat:30.916017,shopPower: NULL,shopType: NULL,mainCategoryName: NULL,categoryURLName: NULL,shopGroupId: NULL,categoryName: NULL,comNum:6条评论
 shopId: 13791089, shopName: "浪波湾造型公社",shopGlng:121.760856628418,shopGlat:31.0497341156006,shopPower: NULL,shopType: NULL,mainCategoryName: NULL,categoryURLName: NULL,shopGroupId: NULL,categoryName: NULL,comNum:8条评论
 shopId: 13791138, shopName: "威森造型",shopGlng:121.750785862008,shopGlat:31.0486675861876,shopPower: NULL,shopType: NULL,mainCategoryName: NULL,categoryURLName: NULL,shopGroupId: NULL,categoryName: NULL,comNum:消费：-
 shopId: 13793196, shopName: "美娟半永久定妆",shopGlng:121.430448,shopGlat:31.235412,shopPower: NULL,shopType: NULL,mainCategoryName: NULL,categoryURLName: NULL,shopGroupId: NULL,categoryName: NULL,comNum:34条评论
 shopId: 13793434, shopName: "Sara Nail 美沙美甲美睫会所",shopGlng:121.5842336,shopGlat:31.25444273,shopPower: NULL,shopType: NULL,mainCategoryName: NULL,categoryURLName: NULL,shopGroupId: NULL,categoryName: NULL,comNum:122条评论
 shopId: 13793954, shopName: "名媛SPA生活馆",shopGlng:121.4025,shopGlat:31.147899,shopPower: NULL,shopType: NULL,mainCategoryName: NULL,categoryURLName: NULL,shopGroupId: NULL,categoryName: NULL,comNum:10条评论
 shopId: 13795904, shopName: "海涛",shopGlng:121.415711,shopGlat:31.112221,shopPower: NULL,shopType: NULL,mainCategoryName: NULL,categoryURLName: NULL,shopGroupId: NULL,categoryName: NULL,comNum:消费：-
 shopId: 13797940, shopName: "新合美容美发",shopGlng:121.44259,shopGlat:31.33131,shopPower: NULL,shopType: NULL,mainCategoryName: NULL,categoryURLName: NULL,shopGroupId: NULL,categoryName: NULL,comNum:20条评论
 shopId: 13803591, shopName: "春瑞舞蹈",shopGlng:121.533927,shopGlat:31.17955,shopPower: NULL,shopType: NULL,mainCategoryName: NULL,categoryURLName: NULL,shopGroupId: NULL,categoryName: NULL,comNum:6条评论
 shopId: 13804459, shopName: "UKARI美甲美容社",shopGlng:121.3940906,shopGlat:31.195551,shopPower: NULL,shopType: NULL,mainCategoryName: NULL,categoryURLName: NULL,shopGroupId: NULL,categoryName: NULL,comNum:61条评论
 shopId: 13807690, shopName: "美甲店Lavida",shopGlng:121.443539999816,shopGlat:31.2372799999801,shopPower: NULL,shopType: NULL,mainCategoryName: NULL,categoryURLName: NULL,shopGroupId: NULL,categoryName: NULL,comNum:1条评论
 shopId: 13807705, shopName: "LR Nail",shopGlng:121.45589802585596,shopGlat:31.225063170657506,shopPower: NULL,shopType: NULL,mainCategoryName: NULL,categoryURLName: NULL,shopGroupId: NULL,categoryName: NULL,comNum:385条评论
 shopId: 13808043, shopName: "玛尔黛兰百草养生",shopGlng:121.520529,shopGlat:31.218678,shopPower: NULL,shopType: NULL,mainCategoryName: NULL,categoryURLName: NULL,shopGroupId: NULL,categoryName: NULL,comNum:1条评论
 shopId: 13809983, shopName: "佳宜完美专业减肥美容",shopGlng:121.69784,shopGlat:31.195205,shopPower: NULL,shopType: NULL,mainCategoryName: NULL,categoryURLName: NULL,shopGroupId: NULL,categoryName: NULL,comNum:2条评论
 shopId: 13814901, shopName: "金剪子专业造型",shopGlng:121.217783,shopGlat:31.032913,shopPower: NULL,shopType: NULL,mainCategoryName: NULL,categoryURLName: NULL,shopGroupId: NULL,categoryName: NULL,comNum:2条评论
 shopId: 13814989, shopName: "CLINIQUE",shopGlng:121.447010000138,shopGlat:31.3227800000034,shopPower: NULL,shopType: NULL,mainCategoryName: NULL,categoryURLName: NULL,shopGroupId: NULL,categoryName: NULL,comNum:2条评论
 shopId: 13818558, shopName: "innisfree",shopGlng:121.47168,shopGlat:31.24283,shopPower: NULL,shopType: NULL,mainCategoryName: NULL,categoryURLName: NULL,shopGroupId: NULL,categoryName: NULL,comNum:107条评论
 shopId: 13819221, shopName: "涛上形象设计",shopGlng:121.46006999991,shopGlat:31.3282600000011,shopPower: NULL,shopType: NULL,mainCategoryName: NULL,categoryURLName: NULL,shopGroupId: NULL,categoryName: NULL,comNum:消费：-
 shopId: 13823110, shopName: "F77时尚馆",shopGlng:121.754859999939,shopGlat:31.0483899999807,shopPower: NULL,shopType: NULL,mainCategoryName: NULL,categoryURLName: NULL,shopGroupId: NULL,categoryName: NULL,comNum:3条评论
 shopId: 13823566, shopName: "梵创造型",shopGlng:121.451294,shopGlat:31.273917,shopPower: NULL,shopType: NULL,mainCategoryName: NULL,categoryURLName: NULL,shopGroupId: NULL,categoryName: NULL,comNum:283条评论
 shopId: 13824603, shopName: "尚艺造型",shopGlng:121.6931104,shopGlat:31.19633278,shopPower: NULL,shopType: NULL,mainCategoryName: NULL,categoryURLName: NULL,shopGroupId: NULL,categoryName: NULL,comNum:7条评论
 shopId: 13825503, shopName: "OLAY",shopGlng:121.40455,shopGlat:31.211349,shopPower: NULL,shopType: NULL,mainCategoryName: NULL,categoryURLName: NULL,shopGroupId: NULL,categoryName: NULL,comNum:3条评论
 shopId: 13827464, shopName: "露伊美SPA会所",shopGlng:121.230295,shopGlat:31.052923,shopPower: NULL,shopType: NULL,mainCategoryName: NULL,categoryURLName: NULL,shopGroupId: NULL,categoryName: NULL,comNum:1条评论
 shopId: 13827846, shopName: "雅治造型",shopGlng:121.2302597,shopGlat:31.05273305,shopPower: NULL,shopType: NULL,mainCategoryName: NULL,categoryURLName: NULL,shopGroupId: NULL,categoryName: NULL,comNum:81条评论
 shopId: 13829784, shopName: "CHI spa",shopGlng:121.449931,shopGlat:31.22318,shopPower: NULL,shopType: NULL,mainCategoryName: NULL,categoryURLName: NULL,shopGroupId: NULL,categoryName: NULL,comNum:4条评论
 shopId: 13830084, shopName: "发迹美容SPA造型机构",shopGlng:121.65497,shopGlat:31.202641,shopPower: NULL,shopType: NULL,mainCategoryName: NULL,categoryURLName: NULL,shopGroupId: NULL,categoryName: NULL,comNum:2条评论
 shopId: 13832020, shopName: "千针刺青",shopGlng:121.401890000179,shopGlat:31.1337100000086,shopPower: NULL,shopType: NULL,mainCategoryName: NULL,categoryURLName: NULL,shopGroupId: NULL,categoryName: NULL,comNum:15条评论
 shopId: 13832438, shopName: "Nail Salon",shopGlng:121.472958,shopGlat:31.204813,shopPower: NULL,shopType: NULL,mainCategoryName: NULL,categoryURLName: NULL,shopGroupId: NULL,categoryName: NULL,comNum:104条评论
 shopId: 13833391, shopName: "A&T概念时尚造型",shopGlng:121.18644,shopGlat:31.037641,shopPower: NULL,shopType: NULL,mainCategoryName: NULL,categoryURLName: NULL,shopGroupId: NULL,categoryName: NULL,comNum:3条评论
 shopId: 13834305, shopName: "宝谛薇BEAUTÉAVIE养生美容会所",shopGlng:121.474156,shopGlat:31.193671,shopPower: NULL,shopType: NULL,mainCategoryName: NULL,categoryURLName: NULL,shopGroupId: NULL,categoryName: NULL,comNum:165条评论
 shopId: 13846118, shopName: "WLQ造型",shopGlng:121.48231,shopGlat:31.26529,shopPower: NULL,shopType: NULL,mainCategoryName: NULL,categoryURLName: NULL,shopGroupId: NULL,categoryName: NULL,comNum:139条评论
 shopId: 13847546, shopName: "Pure Yoga",shopGlng:121.4582,shopGlat:31.21564,shopPower: NULL,shopType: NULL,mainCategoryName: NULL,categoryURLName: NULL,shopGroupId: NULL,categoryName: NULL,comNum:127条评论
 shopId: 13847647, shopName: "东京医美·日式美睫纹绣",shopGlng:121.51401,shopGlat:31.22678,shopPower: NULL,shopType: NULL,mainCategoryName: NULL,categoryURLName: NULL,shopGroupId: NULL,categoryName: NULL,comNum:45条评论
 shopId: 13848092, shopName: "La Luna美甲美睫",shopGlng:121.45352,shopGlat:31.275089,shopPower: NULL,shopType: NULL,mainCategoryName: NULL,categoryURLName: NULL,shopGroupId: NULL,categoryName: NULL,comNum:105条评论
 shopId: 13848154, shopName: "左图",shopGlng:121.653167,shopGlat:31.2079,shopPower: NULL,shopType: NULL,mainCategoryName: NULL,categoryURLName: NULL,shopGroupId: NULL,categoryName: NULL,comNum:20条评论
 shopId: 13848163, shopName: "开禹美容美发",shopGlng:121.63134,shopGlat:31.199603,shopPower: NULL,shopType: NULL,mainCategoryName: NULL,categoryURLName: NULL,shopGroupId: NULL,categoryName: NULL,comNum:32条评论
 shopId: 13848169, shopName: "开禹护肤造型",shopGlng:121.490128,shopGlat:31.173239,shopPower: NULL,shopType: NULL,mainCategoryName: NULL,categoryURLName: NULL,shopGroupId: NULL,categoryName: NULL,comNum:79条评论
 shopId: 13849601, shopName: "钯玲女子美容生活馆",shopGlng:121.493665,shopGlat:31.284278,shopPower: NULL,shopType: NULL,mainCategoryName: NULL,categoryURLName: NULL,shopGroupId: NULL,categoryName: NULL,comNum:1条评论
 shopId: 13851185, shopName: "米咔无痕接发",shopGlng:121.43887,shopGlat:31.19164,shopPower: NULL,shopType: NULL,mainCategoryName: NULL,categoryURLName: NULL,shopGroupId: NULL,categoryName: NULL,comNum:35条评论
 shopId: 13853194, shopName: "红酥手美甲沙龙",shopGlng:121.350811,shopGlat:31.402652,shopPower: NULL,shopType: NULL,mainCategoryName: NULL,categoryURLName: NULL,shopGroupId: NULL,categoryName: NULL,comNum:26条评论
 shopId: 13853864, shopName: "宗度私属定制 周二店休",shopGlng:121.3864,shopGlat:31.1317,shopPower: NULL,shopType: NULL,mainCategoryName: NULL,categoryURLName: NULL,shopGroupId: NULL,categoryName: NULL,comNum:166条评论
 shopId: 13857206, shopName: "PURE",shopGlng:121.45776,shopGlat:31.21619,shopPower: NULL,shopType: NULL,mainCategoryName: NULL,categoryURLName: NULL,shopGroupId: NULL,categoryName: NULL,comNum:消费：-
 shopId: 13858335, shopName: "爱俪舍护肤造型",shopGlng:121.74214,shopGlat:31.03888,shopPower: NULL,shopType: NULL,mainCategoryName: NULL,categoryURLName: NULL,shopGroupId: NULL,categoryName: NULL,comNum:消费：-
 shopId: 13861478, shopName: "恋指轩",shopGlng:121.481984,shopGlat:31.266018,shopPower: NULL,shopType: NULL,mainCategoryName: NULL,categoryURLName: NULL,shopGroupId: NULL,categoryName: NULL,comNum:消费：-
 shopId: 13872709, shopName: "妍色造型",shopGlng:121.495562,shopGlat:31.176638,shopPower: NULL,shopType: NULL,mainCategoryName: NULL,categoryURLName: NULL,shopGroupId: NULL,categoryName: NULL,comNum:34条评论
 shopId: 13872736, shopName: "护肤造型SPA",shopGlng:121.615559,shopGlat:31.202977,shopPower: NULL,shopType: NULL,mainCategoryName: NULL,categoryURLName: NULL,shopGroupId: NULL,categoryName: NULL,comNum:12条评论
 shopId: 13874412, shopName: "紫苏养生会所",shopGlng:121.45317,shopGlat:31.2338,shopPower: NULL,shopType: NULL,mainCategoryName: NULL,categoryURLName: NULL,shopGroupId: NULL,categoryName: NULL,comNum:572条评论
 shopId: 13875632, shopName: "热舞舞蹈会所",shopGlng:121.516869999986,shopGlat:31.234679999967,shopPower: NULL,shopType: NULL,mainCategoryName: NULL,categoryURLName: NULL,shopGroupId: NULL,categoryName: NULL,comNum:98条评论
 shopId: 13877427, shopName: "美惠子日式美甲美睫",shopGlng:121.51739,shopGlat:31.22909,shopPower: NULL,shopType: NULL,mainCategoryName: NULL,categoryURLName: NULL,shopGroupId: NULL,categoryName: NULL,comNum:653条评论
 shopId: 13877764, shopName: "ASE美睫坊",shopGlng:121.422769999968,shopGlat:31.2197000000431,shopPower: NULL,shopType: NULL,mainCategoryName: NULL,categoryURLName: NULL,shopGroupId: NULL,categoryName: NULL,comNum:58条评论
 shopId: 13878208, shopName: "JC Dance",shopGlng:121.446319999892,shopGlat:31.2352700000475,shopPower: NULL,shopType: NULL,mainCategoryName: NULL,categoryURLName: NULL,shopGroupId: NULL,categoryName: NULL,comNum:2条评论
 shopId: 13878517, shopName: "百秀护肤造型",shopGlng:121.58628,shopGlat:31.33722,shopPower: NULL,shopType: NULL,mainCategoryName: NULL,categoryURLName: NULL,shopGroupId: NULL,categoryName: NULL,comNum:5条评论
 shopId: 13878976, shopName: "SK-II",shopGlng:121.383577,shopGlat:31.245298,shopPower: NULL,shopType: NULL,mainCategoryName: NULL,categoryURLName: NULL,shopGroupId: NULL,categoryName: NULL,comNum:5条评论
 shopId: 13881797, shopName: "阿唐造型烫染沙龙",shopGlng:121.745955,shopGlat:31.04444,shopPower: NULL,shopType: NULL,mainCategoryName: NULL,categoryURLName: NULL,shopGroupId: NULL,categoryName: NULL,comNum:1条评论
 shopId: 13883653, shopName: "苏鑫",shopGlng:121.190159999901,shopGlat:31.0387800000167,shopPower: NULL,shopType: NULL,mainCategoryName: NULL,categoryURLName: NULL,shopGroupId: NULL,categoryName: NULL,comNum:消费：-
 shopId: 13883889, shopName: "阿艺琳美发",shopGlng:121.354976,shopGlat:31.167538,shopPower: NULL,shopType: NULL,mainCategoryName: NULL,categoryURLName: NULL,shopGroupId: NULL,categoryName: NULL,comNum:12条评论
 shopId: 13884290, shopName: "东方风行护肤专营",shopGlng:121.35283999991,shopGlat:31.2428499999794,shopPower: NULL,shopType: NULL,mainCategoryName: NULL,categoryURLName: NULL,shopGroupId: NULL,categoryName: NULL,comNum:1条评论
 shopId: 13884459, shopName: "Lomo A",shopGlng:121.45697,shopGlat:31.22837,shopPower: NULL,shopType: NULL,mainCategoryName: NULL,categoryURLName: NULL,shopGroupId: NULL,categoryName: NULL,comNum:66条评论
 shopId: 13884845, shopName: "指尖缘吧美甲店",shopGlng:121.632928,shopGlat:31.199075,shopPower: NULL,shopType: NULL,mainCategoryName: NULL,categoryURLName: NULL,shopGroupId: NULL,categoryName: NULL,comNum:18条评论
 shopId: 13887309, shopName: "银河造型",shopGlng:121.63259,shopGlat:31.19909,shopPower: NULL,shopType: NULL,mainCategoryName: NULL,categoryURLName: NULL,shopGroupId: NULL,categoryName: NULL,comNum:4条评论
shopId: NULL,shopName: NULL,shopGlng:121.513576,shopGlat:31.14076,shopPower: NULL,shopType: NULL,mainCategoryName: NULL,categoryURLName: NULL,shopGroupId: NULL,categoryName: NULL,comNum:20条评论
 shopId: 13890298, shopName: "吉吉靓甲美睫",shopGlng:121.4191797729262,shopGlat:31.21749031100492,shopPower: NULL,shopType: NULL,mainCategoryName: NULL,categoryURLName: NULL,shopGroupId: NULL,categoryName: NULL,comNum:351条评论
 shopId: 13891224, shopName: "莲杨瑜伽馆",shopGlng:121.56265,shopGlat:31.17653,shopPower: NULL,shopType: NULL,mainCategoryName: NULL,categoryURLName: NULL,shopGroupId: NULL,categoryName: NULL,comNum:8条评论
 shopId: 13891413, shopName: "美联社",shopGlng:121.40326,shopGlat:31.21095,shopPower: NULL,shopType: NULL,mainCategoryName: NULL,categoryURLName: NULL,shopGroupId: NULL,categoryName: NULL,comNum:864条评论
 shopId: 13893286, shopName: "Dance Star舞蹈会所",shopGlng:121.46931,shopGlat:31.205052,shopPower: NULL,shopType: NULL,mainCategoryName: NULL,categoryURLName: NULL,shopGroupId: NULL,categoryName: NULL,comNum:9条评论
 shopId: 13893654, shopName: "玺美医疗美容",shopGlng:121.466876,shopGlat:31.221273,shopPower: NULL,shopType: NULL,mainCategoryName: NULL,categoryURLName: NULL,shopGroupId: NULL,categoryName: NULL,comNum:13份体验报告
 shopId: 13893800, shopName: "林清轩",shopGlng:121.38258,shopGlat:31.31534,shopPower: NULL,shopType: NULL,mainCategoryName: NULL,categoryURLName: NULL,shopGroupId: NULL,categoryName: NULL,comNum:6条评论
 shopId: 13894330, shopName: "Missha谜尚·韩国皮肤管理抗衰老SPA中心",shopGlng:121.447391,shopGlat:31.317188,shopPower: NULL,shopType: NULL,mainCategoryName: NULL,categoryURLName: NULL,shopGroupId: NULL,categoryName: NULL,comNum:112条评论
 shopId: 13894954, shopName: "OM瑜珈",shopGlng:121.41487,shopGlat:31.19967,shopPower: NULL,shopType: NULL,mainCategoryName: NULL,categoryURLName: NULL,shopGroupId: NULL,categoryName: NULL,comNum:人均：-
 shopId: 13895878, shopName: "东京",shopGlng:121.353662,shopGlat:31.098792,shopPower: NULL,shopType: NULL,mainCategoryName: NULL,categoryURLName: NULL,shopGroupId: NULL,categoryName: NULL,comNum:消费：-
 shopId: 13896033, shopName: "春田花美甲美睫沙龙",shopGlng:121.39432,shopGlat:31.260138,shopPower: NULL,shopType: NULL,mainCategoryName: NULL,categoryURLName: NULL,shopGroupId: NULL,categoryName: NULL,comNum:9条评论
 shopId: 13896723, shopName: "LI NAIL美甲",shopGlng:121.52692,shopGlat:31.31808,shopPower: NULL,shopType: NULL,mainCategoryName: NULL,categoryURLName: NULL,shopGroupId: NULL,categoryName: NULL,comNum:25条评论
 shopId: 13898732, shopName: "贝娜专业造型",shopGlng:121.74479,shopGlat:31.04677,shopPower: NULL,shopType: NULL,mainCategoryName: NULL,categoryURLName: NULL,shopGroupId: NULL,categoryName: NULL,comNum:消费：-
 shopId: 13899981, shopName: "春风瑜伽",shopGlng:121.3177077,shopGlat:30.94125264,shopPower: NULL,shopType: NULL,mainCategoryName: NULL,categoryURLName: NULL,shopGroupId: NULL,categoryName: NULL,comNum:人均：-
 shopId: 13906248, shopName: "洁宝贝",shopGlng:121.23449,shopGlat:31.10635,shopPower: NULL,shopType: NULL,mainCategoryName: NULL,categoryURLName: NULL,shopGroupId: NULL,categoryName: NULL,comNum:消费：-
 shopId: 13906379, shopName: "美宝SPA氧多多养生会所",shopGlng:121.43865,shopGlat:31.21503,shopPower: NULL,shopType: NULL,mainCategoryName: NULL,categoryURLName: NULL,shopGroupId: NULL,categoryName: NULL,comNum:121条评论
 shopId: 13907425, shopName: "TOP RED 美甲美睫",shopGlng:121.369094,shopGlat:31.348967,shopPower: NULL,shopType: NULL,mainCategoryName: NULL,categoryURLName: NULL,shopGroupId: NULL,categoryName: NULL,comNum:46条评论
 shopId: 13908672, shopName: "琴妮湖养生美容SPA会所",shopGlng:121.4390745,shopGlat:31.19760326,shopPower: NULL,shopType: NULL,mainCategoryName: NULL,categoryURLName: NULL,shopGroupId: NULL,categoryName: NULL,comNum:23条评论
 shopId: 13908921, shopName: "心月婷",shopGlng:121.59151,shopGlat:31.32671,shopPower: NULL,shopType: NULL,mainCategoryName: NULL,categoryURLName: NULL,shopGroupId: NULL,categoryName: NULL,comNum:2条评论
 shopId: 13909813, shopName: "渡村SALON",shopGlng:121.423218,shopGlat:31.219026,shopPower: NULL,shopType: NULL,mainCategoryName: NULL,categoryURLName: NULL,shopGroupId: NULL,categoryName: NULL,comNum:393条评论
 shopId: 13910926, shopName: "Queena·J日式美甲艺术沙龙",shopGlng:121.47438,shopGlat:31.21839,shopPower: NULL,shopType: NULL,mainCategoryName: NULL,categoryURLName: NULL,shopGroupId: NULL,categoryName: NULL,comNum:53条评论
 shopId: 13911286, shopName: "灵思洁境",shopGlng:121.43742,shopGlat:31.18523,shopPower: NULL,shopType: NULL,mainCategoryName: NULL,categoryURLName: NULL,shopGroupId: NULL,categoryName: NULL,comNum:2条评论
 shopId: 13911326, shopName: "荟草堂专业痘肌护理连锁机构",shopGlng:121.488785,shopGlat:31.382961,shopPower: NULL,shopType: NULL,mainCategoryName: NULL,categoryURLName: NULL,shopGroupId: NULL,categoryName: NULL,comNum:3条评论
 shopId: 13911692, shopName: "优甲屋",shopGlng:121.53451,shopGlat:31.18285,shopPower: NULL,shopType: NULL,mainCategoryName: NULL,categoryURLName: NULL,shopGroupId: NULL,categoryName: NULL,comNum:11条评论
 shopId: 13911939, shopName: "米娜美甲",shopGlng:121.58548,shopGlat:31.269628,shopPower: NULL,shopType: NULL,mainCategoryName: NULL,categoryURLName: NULL,shopGroupId: NULL,categoryName: NULL,comNum:消费：-
 shopId: 13912616, shopName: "市北高新商务中心SPA",shopGlng:121.43723,shopGlat:31.29557,shopPower: NULL,shopType: NULL,mainCategoryName: NULL,categoryURLName: NULL,shopGroupId: NULL,categoryName: NULL,comNum:5条评论
 shopId: 13912684, shopName: "傲曲星纤体会所",shopGlng:121.401657,shopGlat:31.133533,shopPower: NULL,shopType: NULL,mainCategoryName: NULL,categoryURLName: NULL,shopGroupId: NULL,categoryName: NULL,comNum:277条评论
 shopId: 13912790, shopName: "紫苏养生会所",shopGlng:121.44321,shopGlat:31.23215,shopPower: NULL,shopType: NULL,mainCategoryName: NULL,categoryURLName: NULL,shopGroupId: NULL,categoryName: NULL,comNum:606条评论
 shopId: 13913434, shopName: "纤·丽妍美甲美睫",shopGlng:121.457965,shopGlat:31.218285,shopPower: NULL,shopType: NULL,mainCategoryName: NULL,categoryURLName: NULL,shopGroupId: NULL,categoryName: NULL,comNum:27条评论
 shopId: 13913625, shopName: "寇氏拔罐减肥",shopGlng:121.562545,shopGlat:31.135998,shopPower: NULL,shopType: NULL,mainCategoryName: NULL,categoryURLName: NULL,shopGroupId: NULL,categoryName: NULL,comNum:13条评论
 shopId: 13914627, shopName: "华娜美容美体",shopGlng:121.503701,shopGlat:31.157843,shopPower: NULL,shopType: NULL,mainCategoryName: NULL,categoryURLName: NULL,shopGroupId: NULL,categoryName: NULL,comNum:3条评论
 shopId: 13917897, shopName: "Nail Time",shopGlng:121.45993,shopGlat:31.22306,shopPower: NULL,shopType: NULL,mainCategoryName: NULL,categoryURLName: NULL,shopGroupId: NULL,categoryName: NULL,comNum:5条评论
 shopId: 13919879, shopName: "屈臣氏",shopGlng:121.53711,shopGlat:31.26984,shopPower: NULL,shopType: NULL,mainCategoryName: NULL,categoryURLName: NULL,shopGroupId: NULL,categoryName: NULL,comNum:45条评论
 shopId: 13919883, shopName: "屈臣氏",shopGlng:121.49007,shopGlat:31.21213,shopPower: NULL,shopType: NULL,mainCategoryName: NULL,categoryURLName: NULL,shopGroupId: NULL,categoryName: NULL,comNum:68条评论
 shopId: 13920703, shopName: "爱尚美甲",shopGlng:121.3794,shopGlat:31.10657,shopPower: NULL,shopType: NULL,mainCategoryName: NULL,categoryURLName: NULL,shopGroupId: NULL,categoryName: NULL,comNum:21条评论
 shopId: 13921189, shopName: "精剪屋美容美发",shopGlng:121.5072718327795,shopGlat:31.25682083231692,shopPower: NULL,shopType: NULL,mainCategoryName: NULL,categoryURLName: NULL,shopGroupId: NULL,categoryName: NULL,comNum:3条评论
 shopId: 13921779, shopName: "开禹护肤造型",shopGlng:121.6103,shopGlat:31.28404,shopPower: NULL,shopType: NULL,mainCategoryName: NULL,categoryURLName: NULL,shopGroupId: NULL,categoryName: NULL,comNum:9条评论
 shopId: 13922323, shopName: "思密达",shopGlng:121.41796,shopGlat:31.2187,shopPower: NULL,shopType: NULL,mainCategoryName: NULL,categoryURLName: NULL,shopGroupId: NULL,categoryName: NULL,comNum:950条评论
 shopId: 13922626, shopName: "尚锦泰护肤造型SPA连锁",shopGlng:121.522643,shopGlat:31.219498,shopPower: NULL,shopType: NULL,mainCategoryName: NULL,categoryURLName: NULL,shopGroupId: NULL,categoryName: NULL,comNum:13条评论
 shopId: 13922971, shopName: "星丝尚形象定制沙龙",shopGlng:121.51729,shopGlat:31.302898,shopPower: NULL,shopType: NULL,mainCategoryName: NULL,categoryURLName: NULL,shopGroupId: NULL,categoryName: NULL,comNum:21条评论
 shopId: 13923085, shopName: "偉造型",shopGlng:121.47412,shopGlat:31.2195,shopPower: NULL,shopType: NULL,mainCategoryName: NULL,categoryURLName: NULL,shopGroupId: NULL,categoryName: NULL,comNum:135条评论
 shopId: 13923445, shopName: "That Girl蜜蜡修眉脱毛美甲美睫",shopGlng:121.45986,shopGlat:31.222703,shopPower: NULL,shopType: NULL,mainCategoryName: NULL,categoryURLName: NULL,shopGroupId: NULL,categoryName: NULL,comNum:96条评论
 shopId: 13923973, shopName: "Nail Amour",shopGlng:121.426025,shopGlat:31.163342,shopPower: NULL,shopType: NULL,mainCategoryName: NULL,categoryURLName: NULL,shopGroupId: NULL,categoryName: NULL,comNum:36条评论
 shopId: 13925561, shopName: "明英MY SALON",shopGlng:121.43804,shopGlat:31.21629,shopPower: NULL,shopType: NULL,mainCategoryName: NULL,categoryURLName: NULL,shopGroupId: NULL,categoryName: NULL,comNum:37条评论
 shopId: 13925616, shopName: "我爱发型师",shopGlng:121.756073,shopGlat:31.0441,shopPower: NULL,shopType: NULL,mainCategoryName: NULL,categoryURLName: NULL,shopGroupId: NULL,categoryName: NULL,comNum:消费：-
 shopId: 13926945, shopName: "红唇君",shopGlng:121.513153,shopGlat:31.240422,shopPower: NULL,shopType: NULL,mainCategoryName: NULL,categoryURLName: NULL,shopGroupId: NULL,categoryName: NULL,comNum:59条评论
 shopId: 13928314, shopName: "innisfree",shopGlng:121.412595,shopGlat:31.232962,shopPower: NULL,shopType: NULL,mainCategoryName: NULL,categoryURLName: NULL,shopGroupId: NULL,categoryName: NULL,comNum:177条评论
 shopId: 13928627, shopName: "克丽缇娜",shopGlng:121.394419,shopGlat:31.148367,shopPower: NULL,shopType: NULL,mainCategoryName: NULL,categoryURLName: NULL,shopGroupId: NULL,categoryName: NULL,comNum:142条评论
 shopId: 13929724, shopName: "淘甲坊",shopGlng:121.6384,shopGlat:31.20277,shopPower: NULL,shopType: NULL,mainCategoryName: NULL,categoryURLName: NULL,shopGroupId: NULL,categoryName: NULL,comNum:1条评论
 shopId: 13929746, shopName: "专业美甲",shopGlng:121.63292,shopGlat:31.19907,shopPower: NULL,shopType: NULL,mainCategoryName: NULL,categoryURLName: NULL,shopGroupId: NULL,categoryName: NULL,comNum:2条评论
 shopId: 13931235, shopName: "汉方美容美发",shopGlng:121.72109,shopGlat:31.23609,shopPower: NULL,shopType: NULL,mainCategoryName: NULL,categoryURLName: NULL,shopGroupId: NULL,categoryName: NULL,comNum:5条评论
 shopId: 13931259, shopName: "巴黎美发沙龙",shopGlng:121.689727,shopGlat:31.189765,shopPower: NULL,shopType: NULL,mainCategoryName: NULL,categoryURLName: NULL,shopGroupId: NULL,categoryName: NULL,comNum:2条评论
 shopId: 13933052, shopName: "曼都发型",shopGlng:121.45812,shopGlat:31.186921,shopPower: NULL,shopType: NULL,mainCategoryName: NULL,categoryURLName: NULL,shopGroupId: NULL,categoryName: NULL,comNum:342条评论
 shopId: 13933435, shopName: "百年吴越专业祛痘连锁机构",shopGlng:121.418002,shopGlat:31.265775,shopPower: NULL,shopType: NULL,mainCategoryName: NULL,categoryURLName: NULL,shopGroupId: NULL,categoryName: NULL,comNum:25条评论
 shopId: 13933997, shopName: "屈臣氏",shopGlng:121.412033,shopGlat:31.231494,shopPower: NULL,shopType: NULL,mainCategoryName: NULL,categoryURLName: NULL,shopGroupId: NULL,categoryName: NULL,comNum:108条评论
 shopId: 13934326, shopName: "婕妤美甲美睫",shopGlng:121.5257822,shopGlat:31.31789357,shopPower: NULL,shopType: NULL,mainCategoryName: NULL,categoryURLName: NULL,shopGroupId: NULL,categoryName: NULL,comNum:43条评论
 shopId: 13936170, shopName: "克丽缇娜",shopGlng:121.4835998,shopGlat:31.26797846,shopPower: NULL,shopType: NULL,mainCategoryName: NULL,categoryURLName: NULL,shopGroupId: NULL,categoryName: NULL,comNum:5条评论
 shopId: 13936173, shopName: "克丽缇娜",shopGlng:121.405033,shopGlat:31.258758,shopPower: NULL,shopType: NULL,mainCategoryName: NULL,categoryURLName: NULL,shopGroupId: NULL,categoryName: NULL,comNum:14条评论
 shopId: 13936185, shopName: "克丽缇娜",shopGlng:121.2742878,shopGlat:31.1088823,shopPower: NULL,shopType: NULL,mainCategoryName: NULL,categoryURLName: NULL,shopGroupId: NULL,categoryName: NULL,comNum:3条评论
 shopId: 13937247, shopName: "丽妍雅集",shopGlng:121.427435,shopGlat:31.183415,shopPower: NULL,shopType: NULL,mainCategoryName: NULL,categoryURLName: NULL,shopGroupId: NULL,categoryName: NULL,comNum:390条评论
 shopId: 13937424, shopName: "克丽缇娜",shopGlng:121.27983,shopGlat:31.325613,shopPower: NULL,shopType: NULL,mainCategoryName: NULL,categoryURLName: NULL,shopGroupId: NULL,categoryName: NULL,comNum:消费：-
 shopId: 13937551, shopName: "香港修身堂",shopGlng:121.483593,shopGlat:31.225556,shopPower: NULL,shopType: NULL,mainCategoryName: NULL,categoryURLName: NULL,shopGroupId: NULL,categoryName: NULL,comNum:152条评论
 shopId: 13937699, shopName: "克丽缇娜",shopGlng:121.54124,shopGlat:31.20922856,shopPower: NULL,shopType: NULL,mainCategoryName: NULL,categoryURLName: NULL,shopGroupId: NULL,categoryName: NULL,comNum:36条评论
 shopId: 13937841, shopName: "克丽缇娜",shopGlng:121.44861988093281,shopGlat:31.21148918670942,shopPower: NULL,shopType: NULL,mainCategoryName: NULL,categoryURLName: NULL,shopGroupId: NULL,categoryName: NULL,comNum:31条评论
 shopId: 14064283, shopName: "一带美肤护肤造型",shopGlng:121.55298,shopGlat:31.27739,shopPower: NULL,shopType: NULL,mainCategoryName: NULL,categoryURLName: NULL,shopGroupId: NULL,categoryName: NULL,comNum:消费：-
 shopId: 14064295, shopName: "玲瑜美容美发沙龙",shopGlng:121.45528,shopGlat:31.3282,shopPower: NULL,shopType: NULL,mainCategoryName: NULL,categoryURLName: NULL,shopGroupId: NULL,categoryName: NULL,comNum:消费：-
 shopId: 14064312, shopName: "依颜丽美容SPA",shopGlng:121.44301,shopGlat:31.2141,shopPower: NULL,shopType: NULL,mainCategoryName: NULL,categoryURLName: NULL,shopGroupId: NULL,categoryName: NULL,comNum:86条评论
 shopId: 14064337, shopName: "毛豆专业造型",shopGlng:121.52369,shopGlat:31.14319,shopPower: NULL,shopType: NULL,mainCategoryName: NULL,categoryURLName: NULL,shopGroupId: NULL,categoryName: NULL,comNum:2条评论
 shopId: 14064342, shopName: "佳明坊经络馆",shopGlng:121.52831,shopGlat:31.14509,shopPower: NULL,shopType: NULL,mainCategoryName: NULL,categoryURLName: NULL,shopGroupId: NULL,categoryName: NULL,comNum:1条评论
 shopId: 14064537, shopName: "艺尖美容美发连锁机构",shopGlng:121.36492,shopGlat:31.349891,shopPower: NULL,shopType: NULL,mainCategoryName: NULL,categoryURLName: NULL,shopGroupId: NULL,categoryName: NULL,comNum:1条评论
 shopId: 14064550, shopName: "舒美发廊",shopGlng:121.477384,shopGlat:31.256745,shopPower: NULL,shopType: NULL,mainCategoryName: NULL,categoryURLName: NULL,shopGroupId: NULL,categoryName: NULL,comNum:消费：-
 shopId: 14064579, shopName: "完美造型",shopGlng:121.44298,shopGlat:31.31403,shopPower: NULL,shopType: NULL,mainCategoryName: NULL,categoryURLName: NULL,shopGroupId: NULL,categoryName: NULL,comNum:消费：-
 shopId: 14064585, shopName: "鑫尚造型",shopGlng:121.45601,shopGlat:31.31647,shopPower: NULL,shopType: NULL,mainCategoryName: NULL,categoryURLName: NULL,shopGroupId: NULL,categoryName: NULL,comNum:消费：-
 shopId: 14064586, shopName: "红艺造型",shopGlng:121.45406,shopGlat:31.31671,shopPower: NULL,shopType: NULL,mainCategoryName: NULL,categoryURLName: NULL,shopGroupId: NULL,categoryName: NULL,comNum:5条评论
 shopId: 14064700, shopName: "芳芳美发店",shopGlng:121.38376,shopGlat:31.03265,shopPower: NULL,shopType: NULL,mainCategoryName: NULL,categoryURLName: NULL,shopGroupId: NULL,categoryName: NULL,comNum:消费：-
 shopId: 14064729, shopName: "秀域科技美容",shopGlng:121.501556,shopGlat:31.183085,shopPower: NULL,shopType: NULL,mainCategoryName: NULL,categoryURLName: NULL,shopGroupId: NULL,categoryName: NULL,comNum:6条评论
 shopId: 14064730, shopName: "艾熏养生",shopGlng:121.5257,shopGlat:31.20364,shopPower: NULL,shopType: NULL,mainCategoryName: NULL,categoryURLName: NULL,shopGroupId: NULL,categoryName: NULL,comNum:消费：-
 shopId: 14065112, shopName: "龙英助老服务社",shopGlng:121.44434,shopGlat:31.23536,shopPower: NULL,shopType: NULL,mainCategoryName: NULL,categoryURLName: NULL,shopGroupId: NULL,categoryName: NULL,comNum:消费：-
 shopId: 14065134, shopName: "创意造型",shopGlng:121.598088,shopGlat:31.263339,shopPower: NULL,shopType: NULL,mainCategoryName: NULL,categoryURLName: NULL,shopGroupId: NULL,categoryName: NULL,comNum:消费：-
 shopId: 14065203, shopName: "First-Class",shopGlng:121.45959,shopGlat:31.22108,shopPower: NULL,shopType: NULL,mainCategoryName: NULL,categoryURLName: NULL,shopGroupId: NULL,categoryName: NULL,comNum:消费：-
 shopId: 14065212, shopName: "馨仪美发",shopGlng:121.44566,shopGlat:31.21593,shopPower: NULL,shopType: NULL,mainCategoryName: NULL,categoryURLName: NULL,shopGroupId: NULL,categoryName: NULL,comNum:消费：-
 shopId: 14065216, shopName: "艺人美容美发",shopGlng:121.519153,shopGlat:31.2828,shopPower: NULL,shopType: NULL,mainCategoryName: NULL,categoryURLName: NULL,shopGroupId: NULL,categoryName: NULL,comNum:1条评论
 shopId: 14065239, shopName: "Babyface造型沙龙",shopGlng:121.426234,shopGlat:31.222359,shopPower: NULL,shopType: NULL,mainCategoryName: NULL,categoryURLName: NULL,shopGroupId: NULL,categoryName: NULL,comNum:19条评论
 shopId: 14065271, shopName: "你型我塑专业美发",shopGlng:121.49758,shopGlat:31.13871,shopPower: NULL,shopType: NULL,mainCategoryName: NULL,categoryURLName: NULL,shopGroupId: NULL,categoryName: NULL,comNum:1条评论
 shopId: 14065276, shopName: "德造型",shopGlng:121.48891,shopGlat:31.17168,shopPower: NULL,shopType: NULL,mainCategoryName: NULL,categoryURLName: NULL,shopGroupId: NULL,categoryName: NULL,comNum:36条评论
 shopId: 14065346, shopName: "克丽缇娜专业护肤中心",shopGlng:121.43733,shopGlat:31.240848,shopPower: NULL,shopType: NULL,mainCategoryName: NULL,categoryURLName: NULL,shopGroupId: NULL,categoryName: NULL,comNum:28条评论
 shopId: 14065400, shopName: "时尚视觉",shopGlng:121.439896,shopGlat:31.3051,shopPower: NULL,shopType: NULL,mainCategoryName: NULL,categoryURLName: NULL,shopGroupId: NULL,categoryName: NULL,comNum:1条评论
 shopId: 14065489, shopName: "欧艺专业美容美发",shopGlng:121.117558,shopGlat:31.147105,shopPower: NULL,shopType: NULL,mainCategoryName: NULL,categoryURLName: NULL,shopGroupId: NULL,categoryName: NULL,comNum:消费：-
 shopId: 14065493, shopName: "名淑美容会所",shopGlng:121.4814,shopGlat:31.23632,shopPower: NULL,shopType: NULL,mainCategoryName: NULL,categoryURLName: NULL,shopGroupId: NULL,categoryName: NULL,comNum:消费：-
 shopId: 14065542, shopName: "华源烫染社",shopGlng:121.34143,shopGlat:31.48194,shopPower: NULL,shopType: NULL,mainCategoryName: NULL,categoryURLName: NULL,shopGroupId: NULL,categoryName: NULL,comNum:1条评论
 shopId: 14065628, shopName: "纤姿秀专业女子美容生活馆",shopGlng:121.69285,shopGlat:31.18933,shopPower: NULL,shopType: NULL,mainCategoryName: NULL,categoryURLName: NULL,shopGroupId: NULL,categoryName: NULL,comNum:消费：-
 shopId: 14065637, shopName: "族杰美发",shopGlng:121.74929,shopGlat:31.04945,shopPower: NULL,shopType: NULL,mainCategoryName: NULL,categoryURLName: NULL,shopGroupId: NULL,categoryName: NULL,comNum:消费：-
 shopId: 14065862, shopName: "心佳缘养生馆",shopGlng:121.68677,shopGlat:31.19228,shopPower: NULL,shopType: NULL,mainCategoryName: NULL,categoryURLName: NULL,shopGroupId: NULL,categoryName: NULL,comNum:消费：-
 shopId: 14065869, shopName: "尼东造型设计",shopGlng:121.622404,shopGlat:31.143638,shopPower: NULL,shopType: NULL,mainCategoryName: NULL,categoryURLName: NULL,shopGroupId: NULL,categoryName: NULL,comNum:消费：-
 shopId: 14065907, shopName: "萍萍美容美发",shopGlng:121.75875,shopGlat:31.11565,shopPower: NULL,shopType: NULL,mainCategoryName: NULL,categoryURLName: NULL,shopGroupId: NULL,categoryName: NULL,comNum:消费：-
 shopId: 14065910, shopName: "经典形象设计",shopGlng:121.75805,shopGlat:31.11598,shopPower: NULL,shopType: NULL,mainCategoryName: NULL,categoryURLName: NULL,shopGroupId: NULL,categoryName: NULL,comNum:消费：-
 shopId: 14065940, shopName: "成浦美发",shopGlng:121.58755,shopGlat:31.34257,shopPower: NULL,shopType: NULL,mainCategoryName: NULL,categoryURLName: NULL,shopGroupId: NULL,categoryName: NULL,comNum:消费：-
 shopId: 14066063, shopName: "晓英专业美发",shopGlng:121.44939,shopGlat:31.27134,shopPower: NULL,shopType: NULL,mainCategoryName: NULL,categoryURLName: NULL,shopGroupId: NULL,categoryName: NULL,comNum:2条评论
 shopId: 14066075, shopName: "广城专业美发",shopGlng:121.578004,shopGlat:31.344835,shopPower: NULL,shopType: NULL,mainCategoryName: NULL,categoryURLName: NULL,shopGroupId: NULL,categoryName: NULL,comNum:1条评论
 shopId: 14066099, shopName: "丝艺烫染专业店",shopGlng:121.61331,shopGlat:31.21404,shopPower: NULL,shopType: NULL,mainCategoryName: NULL,categoryURLName: NULL,shopGroupId: NULL,categoryName: NULL,comNum:消费：-
 shopId: 14066127, shopName: "逍遥",shopGlng:121.56761,shopGlat:31.24244,shopPower: NULL,shopType: NULL,mainCategoryName: NULL,categoryURLName: NULL,shopGroupId: NULL,categoryName: NULL,comNum:2条评论
 shopId: 14066143, shopName: "顶峰造型沙龙",shopGlng:121.30776,shopGlat:31.29627,shopPower: NULL,shopType: NULL,mainCategoryName: NULL,categoryURLName: NULL,shopGroupId: NULL,categoryName: NULL,comNum:7条评论
 shopId: 14066154, shopName: "红星美容美发厅",shopGlng:121.48313,shopGlat:31.1669,shopPower: NULL,shopType: NULL,mainCategoryName: NULL,categoryURLName: NULL,shopGroupId: NULL,categoryName: NULL,comNum:2条评论
 shopId: 14066239, shopName: "避风格美发",shopGlng:121.58591,shopGlat:31.28388,shopPower: NULL,shopType: NULL,mainCategoryName: NULL,categoryURLName: NULL,shopGroupId: NULL,categoryName: NULL,comNum:1条评论
 shopId: 14066240, shopName: "杰生美发",shopGlng:121.58611,shopGlat:31.28387,shopPower: NULL,shopType: NULL,mainCategoryName: NULL,categoryURLName: NULL,shopGroupId: NULL,categoryName: NULL,comNum:消费：-
 shopId: 14066280, shopName: "依黛专业美容",shopGlng:121.40158,shopGlat:31.00928,shopPower: NULL,shopType: NULL,mainCategoryName: NULL,categoryURLName: NULL,shopGroupId: NULL,categoryName: NULL,comNum:消费：-
 shopId: 14066344, shopName: "百变发型工作室",shopGlng:121.575241,shopGlat:31.290287,shopPower: NULL,shopType: NULL,mainCategoryName: NULL,categoryURLName: NULL,shopGroupId: NULL,categoryName: NULL,comNum:消费：-
 shopId: 14066402, shopName: "丝艺造型专业烫染沙龙",shopGlng:121.58667,shopGlat:31.29212,shopPower: NULL,shopType: NULL,mainCategoryName: NULL,categoryURLName: NULL,shopGroupId: NULL,categoryName: NULL,comNum:消费：-
 shopId: 14066478, shopName: "天姿美发美容",shopGlng:121.48229,shopGlat:31.27448,shopPower: NULL,shopType: NULL,mainCategoryName: NULL,categoryURLName: NULL,shopGroupId: NULL,categoryName: NULL,comNum:消费：-
 shopId: 14066488, shopName: "芭芘酷专业造型",shopGlng:121.34167,shopGlat:31.41442,shopPower: NULL,shopType: NULL,mainCategoryName: NULL,categoryURLName: NULL,shopGroupId: NULL,categoryName: NULL,comNum:消费：-
 shopId: 14066777, shopName: "欣美乐美发",shopGlng:121.463969,shopGlat:31.232175,shopPower: NULL,shopType: NULL,mainCategoryName: NULL,categoryURLName: NULL,shopGroupId: NULL,categoryName: NULL,comNum:消费：-
 shopId: 14066950, shopName: "名苑护肤造型",shopGlng:121.42977,shopGlat:31.26199,shopPower: NULL,shopType: NULL,mainCategoryName: NULL,categoryURLName: NULL,shopGroupId: NULL,categoryName: NULL,comNum:消费：-
 shopId: 14066989, shopName: "余勤美发足浴",shopGlng:121.61737,shopGlat:31.33129,shopPower: NULL,shopType: NULL,mainCategoryName: NULL,categoryURLName: NULL,shopGroupId: NULL,categoryName: NULL,comNum:消费：-
 shopId: 14067099, shopName: "影海美容美发",shopGlng:121.68681,shopGlat:31.26048,shopPower: NULL,shopType: NULL,mainCategoryName: NULL,categoryURLName: NULL,shopGroupId: NULL,categoryName: NULL,comNum:消费：-
 shopId: 14067117, shopName: "水胭脂女子养颜中心",shopGlng:121.5807,shopGlat:31.3446,shopPower: NULL,shopType: NULL,mainCategoryName: NULL,categoryURLName: NULL,shopGroupId: NULL,categoryName: NULL,comNum:2条评论
 shopId: 14067123, shopName: "玉兰艺剪室",shopGlng:121.425841,shopGlat:31.348677,shopPower: NULL,shopType: NULL,mainCategoryName: NULL,categoryURLName: NULL,shopGroupId: NULL,categoryName: NULL,comNum:消费：-
 shopId: 14067181, shopName: "西子工作室",shopGlng:121.4612,shopGlat:31.32342,shopPower: NULL,shopType: NULL,mainCategoryName: NULL,categoryURLName: NULL,shopGroupId: NULL,categoryName: NULL,comNum:消费：-
 shopId: 14067210, shopName: "玉红美容美发",shopGlng:121.44018,shopGlat:31.32769,shopPower: NULL,shopType: NULL,mainCategoryName: NULL,categoryURLName: NULL,shopGroupId: NULL,categoryName: NULL,comNum:1条评论
 shopId: 14067315, shopName: "珍珍美发店",shopGlng:121.23647,shopGlat:31.00611,shopPower: NULL,shopType: NULL,mainCategoryName: NULL,categoryURLName: NULL,shopGroupId: NULL,categoryName: NULL,comNum:消费：-
 shopId: 14067319, shopName: "欧米佳护肤造型泗泾",shopGlng:121.27547,shopGlat:31.11555,shopPower: NULL,shopType: NULL,mainCategoryName: NULL,categoryURLName: NULL,shopGroupId: NULL,categoryName: NULL,comNum:消费：-
 shopId: 14067396, shopName: "青云发型屋",shopGlng:121.42537,shopGlat:31.25724,shopPower: NULL,shopType: NULL,mainCategoryName: NULL,categoryURLName: NULL,shopGroupId: NULL,categoryName: NULL,comNum:3条评论
 shopId: 14067425, shopName: "一剪美",shopGlng:121.281918,shopGlat:31.117045,shopPower: NULL,shopType: NULL,mainCategoryName: NULL,categoryURLName: NULL,shopGroupId: NULL,categoryName: NULL,comNum:2条评论
 shopId: 14067437, shopName: "美的梦美容美发",shopGlng:121.43047,shopGlat:31.25674,shopPower: NULL,shopType: NULL,mainCategoryName: NULL,categoryURLName: NULL,shopGroupId: NULL,categoryName: NULL,comNum:消费：-
 shopId: 14067456, shopName: "丽莎美容美发",shopGlng:121.62087,shopGlat:31.20249,shopPower: NULL,shopType: NULL,mainCategoryName: NULL,categoryURLName: NULL,shopGroupId: NULL,categoryName: NULL,comNum:消费：-
 shopId: 14067470, shopName: "超凡美容美发",shopGlng:121.47978,shopGlat:31.28608,shopPower: NULL,shopType: NULL,mainCategoryName: NULL,categoryURLName: NULL,shopGroupId: NULL,categoryName: NULL,comNum:4条评论
 shopId: 14067493, shopName: "1988形象设计",shopGlng:121.48228,shopGlat:31.22729,shopPower: NULL,shopType: NULL,mainCategoryName: NULL,categoryURLName: NULL,shopGroupId: NULL,categoryName: NULL,comNum:32条评论
 shopId: 14067695, shopName: "卡丽丝造型",shopGlng:121.50693,shopGlat:31.15895,shopPower: NULL,shopType: NULL,mainCategoryName: NULL,categoryURLName: NULL,shopGroupId: NULL,categoryName: NULL,comNum:消费：-
 shopId: 14067817, shopName: "文峰美发沙龙",shopGlng:121.59543,shopGlat:31.02674,shopPower: NULL,shopType: NULL,mainCategoryName: NULL,categoryURLName: NULL,shopGroupId: NULL,categoryName: NULL,comNum:消费：-
 shopId: 14067820, shopName: "发轩专业形象设计",shopGlng:121.59682,shopGlat:31.02427,shopPower: NULL,shopType: NULL,mainCategoryName: NULL,categoryURLName: NULL,shopGroupId: NULL,categoryName: NULL,comNum:消费：-
 shopId: 14067836, shopName: "紫玲专业美容美发",shopGlng:121.351067,shopGlat:31.174893,shopPower: NULL,shopType: NULL,mainCategoryName: NULL,categoryURLName: NULL,shopGroupId: NULL,categoryName: NULL,comNum:1条评论
 shopId: 14067885, shopName: "鑫和缘养生馆",shopGlng:121.59026,shopGlat:31.274,shopPower: NULL,shopType: NULL,mainCategoryName: NULL,categoryURLName: NULL,shopGroupId: NULL,categoryName: NULL,comNum:消费：-
 shopId: 14067910, shopName: "懂肤美容理疗馆",shopGlng:121.411354,shopGlat:31.010315,shopPower: NULL,shopType: NULL,mainCategoryName: NULL,categoryURLName: NULL,shopGroupId: NULL,categoryName: NULL,comNum:3条评论
 shopId: 14067919, shopName: "广仔发型",shopGlng:121.595281,shopGlat:31.026425,shopPower: NULL,shopType: NULL,mainCategoryName: NULL,categoryURLName: NULL,shopGroupId: NULL,categoryName: NULL,comNum:消费：-
 shopId: 14067957, shopName: "Show发概念发型原创公社",shopGlng:121.47555,shopGlat:31.26826,shopPower: NULL,shopType: NULL,mainCategoryName: NULL,categoryURLName: NULL,shopGroupId: NULL,categoryName: NULL,comNum:消费：-
 shopId: 14068113, shopName: "温州月娥美发沙龙",shopGlng:121.43814,shopGlat:31.0898,shopPower: NULL,shopType: NULL,mainCategoryName: NULL,categoryURLName: NULL,shopGroupId: NULL,categoryName: NULL,comNum:2条评论
 shopId: 14068169, shopName: "东尼造型",shopGlng:121.37928,shopGlat:31.19174,shopPower: NULL,shopType: NULL,mainCategoryName: NULL,categoryURLName: NULL,shopGroupId: NULL,categoryName: NULL,comNum:1条评论
 shopId: 14068233, shopName: "MX造型",shopGlng:121.49684,shopGlat:31.16331,shopPower: NULL,shopType: NULL,mainCategoryName: NULL,categoryURLName: NULL,shopGroupId: NULL,categoryName: NULL,comNum:1条评论
 shopId: 14068257, shopName: "玺格美容",shopGlng:121.446727,shopGlat:31.338449,shopPower: NULL,shopType: NULL,mainCategoryName: NULL,categoryURLName: NULL,shopGroupId: NULL,categoryName: NULL,comNum:3条评论
 shopId: 14068277, shopName: "艺宣造型",shopGlng:121.45724,shopGlat:31.33881,shopPower: NULL,shopType: NULL,mainCategoryName: NULL,categoryURLName: NULL,shopGroupId: NULL,categoryName: NULL,comNum:消费：-
 shopId: 14068460, shopName: "精剪专业烫染护",shopGlng:121.35218,shopGlat:31.18201,shopPower: NULL,shopType: NULL,mainCategoryName: NULL,categoryURLName: NULL,shopGroupId: NULL,categoryName: NULL,comNum:消费：-
 shopId: 14068508, shopName: "领先发艺",shopGlng:121.31343,shopGlat:31.13598,shopPower: NULL,shopType: NULL,mainCategoryName: NULL,categoryURLName: NULL,shopGroupId: NULL,categoryName: NULL,comNum:消费：-
 shopId: 14068703, shopName: "新时代专业发型设计烫染吧",shopGlng:121.58152,shopGlat:31.34986,shopPower: NULL,shopType: NULL,mainCategoryName: NULL,categoryURLName: NULL,shopGroupId: NULL,categoryName: NULL,comNum:消费：-
 shopId: 14068784, shopName: "偶像发型设计",shopGlng:121.41496,shopGlat:31.27966,shopPower: NULL,shopType: NULL,mainCategoryName: NULL,categoryURLName: NULL,shopGroupId: NULL,categoryName: NULL,comNum:2条评论
 shopId: 14069048, shopName: "逸阁造型",shopGlng:121.3931,shopGlat:31.17453,shopPower: NULL,shopType: NULL,mainCategoryName: NULL,categoryURLName: NULL,shopGroupId: NULL,categoryName: NULL,comNum:12条评论
 shopId: 14069078, shopName: "名爵造型",shopGlng:121.77797,shopGlat:31.0256,shopPower: NULL,shopType: NULL,mainCategoryName: NULL,categoryURLName: NULL,shopGroupId: NULL,categoryName: NULL,comNum:消费：-
 shopId: 14069195, shopName: "新季专业美发",shopGlng:121.52327,shopGlat:31.26186,shopPower: NULL,shopType: NULL,mainCategoryName: NULL,categoryURLName: NULL,shopGroupId: NULL,categoryName: NULL,comNum:消费：-
 shopId: 14069206, shopName: "新卡护肤造型",shopGlng:121.52076,shopGlat:31.26173,shopPower: NULL,shopType: NULL,mainCategoryName: NULL,categoryURLName: NULL,shopGroupId: NULL,categoryName: NULL,comNum:消费：-
 shopId: 14069460, shopName: "剪吧专业造型组",shopGlng:121.47433,shopGlat:31.04321,shopPower: NULL,shopType: NULL,mainCategoryName: NULL,categoryURLName: NULL,shopGroupId: NULL,categoryName: NULL,comNum:消费：-
 shopId: 14069501, shopName: "金蓉美发厅",shopGlng:121.42829,shopGlat:31.00786,shopPower: NULL,shopType: NULL,mainCategoryName: NULL,categoryURLName: NULL,shopGroupId: NULL,categoryName: NULL,comNum:消费：-
 shopId: 14069509, shopName: "大家瑰秀化妆行",shopGlng:121.41655,shopGlat:31.00288,shopPower: NULL,shopType: NULL,mainCategoryName: NULL,categoryURLName: NULL,shopGroupId: NULL,categoryName: NULL,comNum:消费：-
 shopId: 14069586, shopName: "T.B.T.专业烫染店",shopGlng:121.48915,shopGlat:31.2303,shopPower: NULL,shopType: NULL,mainCategoryName: NULL,categoryURLName: NULL,shopGroupId: NULL,categoryName: NULL,comNum:消费：-
 shopId: 14069588, shopName: "耀山美容美发院",shopGlng:121.48492,shopGlat:31.242,shopPower: NULL,shopType: NULL,mainCategoryName: NULL,categoryURLName: NULL,shopGroupId: NULL,categoryName: NULL,comNum:1条评论
 shopId: 14069743, shopName: "时尚元素专业美发烫染",shopGlng:121.60688,shopGlat:31.29577,shopPower: NULL,shopType: NULL,mainCategoryName: NULL,categoryURLName: NULL,shopGroupId: NULL,categoryName: NULL,comNum:消费：-
 shopId: 14069805, shopName: "羽婷",shopGlng:121.41211,shopGlat:31.00835,shopPower: NULL,shopType: NULL,mainCategoryName: NULL,categoryURLName: NULL,shopGroupId: NULL,categoryName: NULL,comNum:消费：-
 shopId: 14069970, shopName: "驿博美发专业店",shopGlng:121.39215,shopGlat:31.32119,shopPower: NULL,shopType: NULL,mainCategoryName: NULL,categoryURLName: NULL,shopGroupId: NULL,categoryName: NULL,comNum:1条评论
 shopId: 14069999, shopName: "金乐剪烫染坊",shopGlng:121.69348,shopGlat:31.19032,shopPower: NULL,shopType: NULL,mainCategoryName: NULL,categoryURLName: NULL,shopGroupId: NULL,categoryName: NULL,comNum:2条评论
 shopId: 14070052, shopName: "艺梵造型设计烫染专业店",shopGlng:121.40224,shopGlat:31.01342,shopPower: NULL,shopType: NULL,mainCategoryName: NULL,categoryURLName: NULL,shopGroupId: NULL,categoryName: NULL,comNum:消费：-
 shopId: 14070062, shopName: "紫竹专业美发造型",shopGlng:121.43486,shopGlat:31.09951,shopPower: NULL,shopType: NULL,mainCategoryName: NULL,categoryURLName: NULL,shopGroupId: NULL,categoryName: NULL,comNum:2条评论
 shopId: 14070083, shopName: "名屋美发美容",shopGlng:121.525138,shopGlat:31.282676,shopPower: NULL,shopType: NULL,mainCategoryName: NULL,categoryURLName: NULL,shopGroupId: NULL,categoryName: NULL,comNum:5条评论
 shopId: 14070116, shopName: "章光101",shopGlng:121.33442,shopGlat:31.13184,shopPower: NULL,shopType: NULL,mainCategoryName: NULL,categoryURLName: NULL,shopGroupId: NULL,categoryName: NULL,comNum:消费：-
 shopId: 14070120, shopName: "剪剪风",shopGlng:121.32945,shopGlat:31.129279,shopPower: NULL,shopType: NULL,mainCategoryName: NULL,categoryURLName: NULL,shopGroupId: NULL,categoryName: NULL,comNum:7条评论
 shopId: 14070144, shopName: "聚屹美容美发",shopGlng:121.3194373,shopGlat:31.12926298,shopPower: NULL,shopType: NULL,mainCategoryName: NULL,categoryURLName: NULL,shopGroupId: NULL,categoryName: NULL,comNum:1条评论
 shopId: 14070185, shopName: "流行前线烫染工作室",shopGlng:121.36635974485169,shopGlat:31.347691018178352,shopPower: NULL,shopType: NULL,mainCategoryName: NULL,categoryURLName: NULL,shopGroupId: NULL,categoryName: NULL,comNum:2条评论
 shopId: 14070208, shopName: "金妃儿专业女子美容spa养生中心",shopGlng:121.600419,shopGlat:31.282444,shopPower: NULL,shopType: NULL,mainCategoryName: NULL,categoryURLName: NULL,shopGroupId: NULL,categoryName: NULL,comNum:消费：-
 shopId: 14070215, shopName: "酉酉发屋",shopGlng:121.45444,shopGlat:31.22121,shopPower: NULL,shopType: NULL,mainCategoryName: NULL,categoryURLName: NULL,shopGroupId: NULL,categoryName: NULL,comNum:5条评论
 shopId: 14070238, shopName: "创美时养生会所",shopGlng:121.37563,shopGlat:31.31409,shopPower: NULL,shopType: NULL,mainCategoryName: NULL,categoryURLName: NULL,shopGroupId: NULL,categoryName: NULL,comNum:2条评论
 shopId: 14070240, shopName: "澜蒂诗",shopGlng:121.374001,shopGlat:31.313884,shopPower: NULL,shopType: NULL,mainCategoryName: NULL,categoryURLName: NULL,shopGroupId: NULL,categoryName: NULL,comNum:消费：-
 shopId: 14070248, shopName: "金美秀专业瘦身",shopGlng:121.47133,shopGlat:31.19818,shopPower: NULL,shopType: NULL,mainCategoryName: NULL,categoryURLName: NULL,shopGroupId: NULL,categoryName: NULL,comNum:3条评论
 shopId: 14070351, shopName: "Beyond Salon",shopGlng:121.437818,shopGlat:31.17675,shopPower: NULL,shopType: NULL,mainCategoryName: NULL,categoryURLName: NULL,shopGroupId: NULL,categoryName: NULL,comNum:3条评论
 shopId: 14070413, shopName: "名发轩",shopGlng:121.57814,shopGlat:31.11595,shopPower: NULL,shopType: NULL,mainCategoryName: NULL,categoryURLName: NULL,shopGroupId: NULL,categoryName: NULL,comNum:消费：-
 shopId: 14070418, shopName: "唯尚造型",shopGlng:121.579913,shopGlat:31.111467,shopPower: NULL,shopType: NULL,mainCategoryName: NULL,categoryURLName: NULL,shopGroupId: NULL,categoryName: NULL,comNum:4条评论
 shopId: 14070430, shopName: "发圣美发设计",shopGlng:121.57112,shopGlat:31.14026,shopPower: NULL,shopType: NULL,mainCategoryName: NULL,categoryURLName: NULL,shopGroupId: NULL,categoryName: NULL,comNum:1条评论
 shopId: 14070431, shopName: "明剪美发造型",shopGlng:121.57184,shopGlat:31.13912,shopPower: NULL,shopType: NULL,mainCategoryName: NULL,categoryURLName: NULL,shopGroupId: NULL,categoryName: NULL,comNum:消费：-
 shopId: 14070493, shopName: "蓝贵坊专业美发沙龙",shopGlng:121.29846,shopGlat:31.14627,shopPower: NULL,shopType: NULL,mainCategoryName: NULL,categoryURLName: NULL,shopGroupId: NULL,categoryName: NULL,comNum:4条评论
 shopId: 14070528, shopName: "爵士造型",shopGlng:121.30941,shopGlat:31.14341,shopPower: NULL,shopType: NULL,mainCategoryName: NULL,categoryURLName: NULL,shopGroupId: NULL,categoryName: NULL,comNum:1条评论
 shopId: 14070553, shopName: "星尚造型",shopGlng:121.58362,shopGlat:31.27988,shopPower: NULL,shopType: NULL,mainCategoryName: NULL,categoryURLName: NULL,shopGroupId: NULL,categoryName: NULL,comNum:1条评论
 shopId: 14070558, shopName: "文杰经典剪艺",shopGlng:121.4203,shopGlat:31.00175,shopPower: NULL,shopType: NULL,mainCategoryName: NULL,categoryURLName: NULL,shopGroupId: NULL,categoryName: NULL,comNum:1条评论
 shopId: 14070561, shopName: "艾尼国际时尚养生会所",shopGlng:121.41933,shopGlat:31.00344,shopPower: NULL,shopType: NULL,mainCategoryName: NULL,categoryURLName: NULL,shopGroupId: NULL,categoryName: NULL,comNum:3条评论
 shopId: 14070565, shopName: "娇兰佳人",shopGlng:121.41847,shopGlat:31.00539,shopPower: NULL,shopType: NULL,mainCategoryName: NULL,categoryURLName: NULL,shopGroupId: NULL,categoryName: NULL,comNum:3条评论
 shopId: 14070580, shopName: "创秀理容院",shopGlng:121.400979,shopGlat:31.246626,shopPower: NULL,shopType: NULL,mainCategoryName: NULL,categoryURLName: NULL,shopGroupId: NULL,categoryName: NULL,comNum:2条评论
 shopId: 14070590, shopName: "戴氏甲康堂",shopGlng:121.42604,shopGlat:31.24644,shopPower: NULL,shopType: NULL,mainCategoryName: NULL,categoryURLName: NULL,shopGroupId: NULL,categoryName: NULL,comNum:消费：-
 shopId: 14070598, shopName: "温州发廊",shopGlng:121.66932,shopGlat:31.16421,shopPower: NULL,shopType: NULL,mainCategoryName: NULL,categoryURLName: NULL,shopGroupId: NULL,categoryName: NULL,comNum:1条评论
 shopId: 14070610, shopName: "名剪城烫染造型",shopGlng:121.516,shopGlat:31.238307,shopPower: NULL,shopType: NULL,mainCategoryName: NULL,categoryURLName: NULL,shopGroupId: NULL,categoryName: NULL,comNum:消费：-
 shopId: 14070657, shopName: "风格造型",shopGlng:121.110809,shopGlat:31.141733,shopPower: NULL,shopType: NULL,mainCategoryName: NULL,categoryURLName: NULL,shopGroupId: NULL,categoryName: NULL,comNum:消费：-
 shopId: 14070738, shopName: "风尚造型连锁机构",shopGlng:121.48162,shopGlat:31.20775,shopPower: NULL,shopType: NULL,mainCategoryName: NULL,categoryURLName: NULL,shopGroupId: NULL,categoryName: NULL,comNum:消费：-
 shopId: 14070909, shopName: "汐叶造艺工坊",shopGlng:121.51093,shopGlat:31.26859,shopPower: NULL,shopType: NULL,mainCategoryName: NULL,categoryURLName: NULL,shopGroupId: NULL,categoryName: NULL,comNum:消费：-
 shopId: 14070927, shopName: "新丝路发型工作室",shopGlng:121.47726,shopGlat:31.12212,shopPower: NULL,shopType: NULL,mainCategoryName: NULL,categoryURLName: NULL,shopGroupId: NULL,categoryName: NULL,comNum:消费：-
 shopId: 14070952, shopName: "传奇雨贤形象公设",shopGlng:121.47749,shopGlat:31.12117,shopPower: NULL,shopType: NULL,mainCategoryName: NULL,categoryURLName: NULL,shopGroupId: NULL,categoryName: NULL,comNum:消费：-
 shopId: 14070978, shopName: "安仔发型创作室",shopGlng:121.51442,shopGlat:31.198102,shopPower: NULL,shopType: NULL,mainCategoryName: NULL,categoryURLName: NULL,shopGroupId: NULL,categoryName: NULL,comNum:1条评论
 shopId: 14071023, shopName: "时尚造型工作室",shopGlng:121.49305,shopGlat:31.16946,shopPower: NULL,shopType: NULL,mainCategoryName: NULL,categoryURLName: NULL,shopGroupId: NULL,categoryName: NULL,comNum:消费：-
 shopId: 14071034, shopName: "美之美容SPA会所",shopGlng:121.5001,shopGlat:31.1411,shopPower: NULL,shopType: NULL,mainCategoryName: NULL,categoryURLName: NULL,shopGroupId: NULL,categoryName: NULL,comNum:2条评论
 shopId: 14071040, shopName: "今日有约",shopGlng:121.49573,shopGlat:31.15758,shopPower: NULL,shopType: NULL,mainCategoryName: NULL,categoryURLName: NULL,shopGroupId: NULL,categoryName: NULL,comNum:消费：-
 shopId: 14071080, shopName: "真女人美容美体",shopGlng:121.50152,shopGlat:31.14401,shopPower: NULL,shopType: NULL,mainCategoryName: NULL,categoryURLName: NULL,shopGroupId: NULL,categoryName: NULL,comNum:消费：-
 shopId: 14071098, shopName: "萍萍美发工作室",shopGlng:121.465634,shopGlat:31.194591,shopPower: NULL,shopType: NULL,mainCategoryName: NULL,categoryURLName: NULL,shopGroupId: NULL,categoryName: NULL,comNum:9条评论
 shopId: 14071155, shopName: "结晶美容美发",shopGlng:121.453253,shopGlat:31.182788,shopPower: NULL,shopType: NULL,mainCategoryName: NULL,categoryURLName: NULL,shopGroupId: NULL,categoryName: NULL,comNum:2条评论
 shopId: 14071158, shopName: "秋雨海棠",shopGlng:121.45308,shopGlat:31.17685,shopPower: NULL,shopType: NULL,mainCategoryName: NULL,categoryURLName: NULL,shopGroupId: NULL,categoryName: NULL,comNum:3条评论
 shopId: 14071353, shopName: "巴黎欧莱雅专业美发",shopGlng:121.500818,shopGlat:31.080545,shopPower: NULL,shopType: NULL,mainCategoryName: NULL,categoryURLName: NULL,shopGroupId: NULL,categoryName: NULL,comNum:消费：-
 shopId: 14071397, shopName: "春升发型设计",shopGlng:121.213,shopGlat:31.27029,shopPower: NULL,shopType: NULL,mainCategoryName: NULL,categoryURLName: NULL,shopGroupId: NULL,categoryName: NULL,comNum:消费：-
 shopId: 14071400, shopName: "名媛女子养生会馆",shopGlng:121.21788,shopGlat:31.26479,shopPower: NULL,shopType: NULL,mainCategoryName: NULL,categoryURLName: NULL,shopGroupId: NULL,categoryName: NULL,comNum:消费：-
 shopId: 14071443, shopName: "金顶峰美容美发",shopGlng:121.345587,shopGlat:31.41991,shopPower: NULL,shopType: NULL,mainCategoryName: NULL,categoryURLName: NULL,shopGroupId: NULL,categoryName: NULL,comNum:36条评论
 shopId: 14071558, shopName: "飘坊专业造型",shopGlng:121.76101,shopGlat:31.05084,shopPower: NULL,shopType: NULL,mainCategoryName: NULL,categoryURLName: NULL,shopGroupId: NULL,categoryName: NULL,comNum:消费：-
 shopId: 14071657, shopName: "金太阳美发设计",shopGlng:121.493992,shopGlat:31.284111,shopPower: NULL,shopType: NULL,mainCategoryName: NULL,categoryURLName: NULL,shopGroupId: NULL,categoryName: NULL,comNum:3条评论
 shopId: 14071664, shopName: "克丽缇娜",shopGlng:121.547419,shopGlat:31.242664,shopPower: NULL,shopType: NULL,mainCategoryName: NULL,categoryURLName: NULL,shopGroupId: NULL,categoryName: NULL,comNum:3条评论
 shopId: 14071753, shopName: "三剪师专业烫染吧",shopGlng:121.652242,shopGlat:31.274005,shopPower: NULL,shopType: NULL,mainCategoryName: NULL,categoryURLName: NULL,shopGroupId: NULL,categoryName: NULL,comNum:1条评论
 shopId: 14071758, shopName: "晨杨美发美甲",shopGlng:121.65455,shopGlat:31.27034,shopPower: NULL,shopType: NULL,mainCategoryName: NULL,categoryURLName: NULL,shopGroupId: NULL,categoryName: NULL,comNum:2条评论
 shopId: 14071806, shopName: "G.Nails美甲彩妆",shopGlng:121.34326,shopGlat:31.0786,shopPower: NULL,shopType: NULL,mainCategoryName: NULL,categoryURLName: NULL,shopGroupId: NULL,categoryName: NULL,comNum:1条评论
 shopId: 14071864, shopName: "风格梳美发沙龙",shopGlng:121.75605,shopGlat:31.11785,shopPower: NULL,shopType: NULL,mainCategoryName: NULL,categoryURLName: NULL,shopGroupId: NULL,categoryName: NULL,comNum:消费：-
 shopId: 14071886, shopName: "少蓉烫染吧",shopGlng:121.40381,shopGlat:31.29979,shopPower: NULL,shopType: NULL,mainCategoryName: NULL,categoryURLName: NULL,shopGroupId: NULL,categoryName: NULL,comNum:消费：-
 shopId: 14071931, shopName: "悦来发艺",shopGlng:121.361733,shopGlat:31.385956,shopPower: NULL,shopType: NULL,mainCategoryName: NULL,categoryURLName: NULL,shopGroupId: NULL,categoryName: NULL,comNum:3条评论
 shopId: 14072040, shopName: "晶曼莎",shopGlng:121.82728,shopGlat:30.90127,shopPower: NULL,shopType: NULL,mainCategoryName: NULL,categoryURLName: NULL,shopGroupId: NULL,categoryName: NULL,comNum:消费：-
 shopId: 14072042, shopName: "三人行美容美发SPA生活馆",shopGlng:121.82724,shopGlat:30.90132,shopPower: NULL,shopType: NULL,mainCategoryName: NULL,categoryURLName: NULL,shopGroupId: NULL,categoryName: NULL,comNum:消费：-
 shopId: 14072054, shopName: "阿英专业美发室",shopGlng:121.51719,shopGlat:31.17724,shopPower: NULL,shopType: NULL,mainCategoryName: NULL,categoryURLName: NULL,shopGroupId: NULL,categoryName: NULL,comNum:1条评论
 shopId: 14072104, shopName: "酷美发艺",shopGlng:121.69699,shopGlat:31.188986,shopPower: NULL,shopType: NULL,mainCategoryName: NULL,categoryURLName: NULL,shopGroupId: NULL,categoryName: NULL,comNum:1条评论
 shopId: 14072137, shopName: "阿彪形象社",shopGlng:121.76419,shopGlat:31.03989,shopPower: NULL,shopType: NULL,mainCategoryName: NULL,categoryURLName: NULL,shopGroupId: NULL,categoryName: NULL,comNum:消费：-
 shopId: 14072245, shopName: "欧娜形象设计",shopGlng:121.333011,shopGlat:31.480692,shopPower: NULL,shopType: NULL,mainCategoryName: NULL,categoryURLName: NULL,shopGroupId: NULL,categoryName: NULL,comNum:消费：-
 shopId: 14072389, shopName: "名剪",shopGlng:121.12124,shopGlat:31.14584,shopPower: NULL,shopType: NULL,mainCategoryName: NULL,categoryURLName: NULL,shopGroupId: NULL,categoryName: NULL,comNum:1条评论
 shopId: 14072414, shopName: "尚兰丝美发连锁",shopGlng:121.50113,shopGlat:31.07997,shopPower: NULL,shopType: NULL,mainCategoryName: NULL,categoryURLName: NULL,shopGroupId: NULL,categoryName: NULL,comNum:35条评论
 shopId: 14072470, shopName: "纤体瘦身",shopGlng:121.51717,shopGlat:31.22902,shopPower: NULL,shopType: NULL,mainCategoryName: NULL,categoryURLName: NULL,shopGroupId: NULL,categoryName: NULL,comNum:消费：-
